stop_id,stop_name,stop_lat,stop_lon
5,WESTERLY TOWN HALL,41.377,-71.829771
10,GROVE NS WILCOX,41.378328,-71.82668
20,WESTERLY RAILROAD STATION,41.381108,-71.829808
25,HIGH FS GROVE,41.381038,-71.82572
50,BOON OPP PERKINS,41.424357,-71.46062
55,BOON FS PERKINS,41.424363,-71.460504
60,S PIER OPP SUMMER,41.424339,-71.461892
65,S PIER FS SUMMER,41.424602,-71.462071
75,S PIER NS FRANK LOW,41.425304,-71.464052
80,S PIER NS FRANK LOW,41.425305,-71.463625
85,BOON NS CONGDON,41.425489,-71.459991
90,BOON NS CONGDON,41.425519,-71.460099
95,S PIER OPP 172 S PIER,41.426203,-71.467536
110,BOON AT 126 BOON,41.427019,-71.459391
115,S PIER FS 172 S PIER,41.426116,-71.467565
120,BOON FS RODMAN,41.427138,-71.45946
125,S PIER AT NARRAGANSETT MIDDLE SCHOOL,41.427791,-71.472088
130,SALT POND SHOPPING PLAZA (STOP&SHOP),41.428327,-71.483315
135,BOON NS CENTRAL,41.42863,-71.458762
140,BOON NS CENTRAL,41.429057,-71.458806
150,S PIER OPP NARRAGANSETT MIDDLE SCHOOL,41.42755,-71.471847
155,S PIER NS LAKEWOOD,41.42984,-71.47616
170,S PIER OPP AVICE,41.430334,-71.479041
185,KINGSTOWN AT LIBRARY,41.431188,-71.460005
190,KINGSTOWN FS CASWELL,41.431088,-71.460146
250,BOSTON NECK AT TOWN BEACH SOUTH PAVILION,41.435122,-71.456388
255,BOSTON NECK - NORTH BEACH SOUTH PAVILION,41.435296,-71.456552
290,BOSTON NECK AT NARR TOWN BEACH NORTH LOT,41.43684,-71.454786
295,BOSTON NECK - NORTH BEACH ENTRANCE,41.437274,-71.454592
300,BOSTON NECK OPP WOOD,41.440814,-71.450822
305,BOSTON NECK - NORTH BEACH CABANAS GATE 7,41.438177,-71.453131
310,MAIN AT 399 MAIN,41.437288,-71.501033
315,MAIN AT 396 MAIN,41.437213,-71.500964
335,MAIN OPP 249-255 MAIN,41.440297,-71.49728
340,MAIN OPP ROBINSON,41.438867,-71.498868
370,MAIN OPP CLEVELAND,41.440945,-71.493886
375,MAIN NS CHAPPELL,41.441236,-71.490843
380,BOSTON NECK FS WOOD,41.440426,-71.451033
390,MAIN FS COLUMBIA,41.440837,-71.49579
395,MAIN FS CLEVELAND,41.440996,-71.494115
405,MAIN NS HOLLEY,41.441449,-71.489655
415,MAIN NS RT 108,41.441356,-71.489258
425,OLD TOWER HILL NS RT 108,41.441867,-71.486656
430,OLD TOWER HILL FS NARRAGANSETT,41.441923,-71.484458
435,OLD TOWER HILL NS KELLY WAY,41.442563,-71.480573
440,OLD TOWER HILL OPP CHAMBER OF COMMERCE,41.44239,-71.480569
445,HIGH AT 180 HIGH,41.441832,-71.502313
450,BOSTON NECK OPP STARR DR W,41.444056,-71.450569
455,WAKEFIELD MALL,41.443701,-71.483301
460,BOSTON NECK FS CASTLE,41.446304,-71.451148
465,BOSTON NECK NS STARR DR WEST,41.444039,-71.450734
475,HIGH FS TUCKER,41.445317,-71.502806
480,BOSTON NECK NS CASTLE,41.446272,-71.451315
485,HIGH FS OAKDELL,41.446838,-71.502613
495,RT 1 OPP WAKEFIELD MEADOWS,41.449051,-71.472449
500,BOSTON NECK FS STARR,41.447528,-71.451146
505,HIGH NS CHURCH,41.449313,-71.501386
520,RT 1 FS HAMPTON,41.448753,-71.47328
525,BOSTON NECK OPP 483 BOSTON NECK,41.455159,-71.440324
535,ASHAWAY PARK & RIDE (HOPKINTON),41.450174,-71.78608
540,HIGH FS RT 108,41.450552,-71.500738
545,HIGH NS RT 108,41.4506,-71.500577
550,KINGSTOWN NS KERSEY RD,41.452806,-71.501864
560,BOSTON NECK FS OLD BOSTON NECK,41.453323,-71.442541
565,BOSTON NECK NS OLD BOSTON NECK,41.458531,-71.43584
570,KINGSTOWN OPP 1428 KINGSTOWN RD,41.454184,-71.505059
585,KINGSTOWN NS MEADOWBROOK WAY,41.45675,-71.508331
595,KINGSTOWN NS SAMUEL RODMAN,41.459516,-71.508756
605,BELLEVUE OPP MARBLE HOUSE,41.46253,-71.306669
615,KINGSTOWN NS SAUGUATUCKET,41.462169,-71.509323
630,BOSTON NECK AT 483 BOSTON NECK,41.454983,-71.440326
635,BOSTON NECK OPP ANAWAN CLIFF,41.461219,-71.433642
640,BOSTON NECK OPP HILLVIEW,41.464374,-71.432912
645,BOSTON NECK AT 750 BOSTON NECK,41.46719,-71.433588
650,BELLEVUE OPP 541 BELLEVUE,41.465772,-71.306883
655,BELLEVUE OPP ROSECLIFF,41.465496,-71.306933
665,BOSTON NECK NS WEST BAY,41.469251,-71.433902
670,KINGSTOWN NS GREENWOOD,41.467617,-71.512248
685,KINGSTOWN OPP GREENWOOD,41.467638,-71.512128
730,RUGGLES OPP STONEACRE,41.468123,-71.305747
735,RUGGLES OPP 204 RUGGLES,41.468284,-71.304332
740,RUGGLES AT STONEACRE HOUSE,41.468206,-71.30565
745,RUGGLES AT WETMORE,41.468379,-71.302933
750,RUGGLES OPP CAREY MANSION,41.468328,-71.304343
755,RUGGLES OPP WETMORE,41.46851,-71.302897
760,RUGGLES NS OCHRE POINT,41.468628,-71.299664
775,OCHRE POINT NS RUGGLES,41.468826,-71.299495
780,BOSTON NECK FS MARIAN,41.473036,-71.434068
785,BOSTON NECK NS BROWNING,41.467493,-71.433526
790,OCHRE POINT NS VICTORIA,41.469948,-71.299707
805,KINGSTOWN NS ROLENS,41.469874,-71.513576
815,KINGSTOWN OPP ROLENS,41.46997,-71.513763
820,OCHRE POINT NS OHARE CENTER,41.470592,-71.29975
830,OCHRE POINT OPP OHARE CENTER,41.470963,-71.299939
845,OCHRE PONT OPP MCAULEY HALL,41.472293,-71.300172
850,OCHRE PONT AT MCAULEY HALL,41.472223,-71.300024
875,OCHRE POINT AT LEROY,41.473046,-71.300161
880,OCHRE POINT NS LEROY,41.473187,-71.300316
885,BOSTON NECK OPP MARIAN,41.4731,-71.433888
890,BOSTON NECK AT 904 BOSTON NECK,41.475633,-71.435242
905,KINGSTOWN NS WESTWIND,41.47106,-71.51468
910,OCHRE POINT NS WEBSTER,41.474144,-71.300124
915,OCHRE POINT NS WEBSTER,41.474556,-71.300226
925,KINGSTOWN OPP WAYSIDE,41.474617,-71.517515
935,KINGSTOWN OPP EAST FARM,41.472152,-71.51562
940,BELLEVUE NS NARRAGANSETT,41.475496,-71.307904
950,NARRAGANSETT NS BELLEVUE,41.475348,-71.307231
955,OCHRE POINT NS NARRAGANSETT,41.475545,-71.300055
965,NARRAGANSETT AVE OPP NEWPORT HALL,41.475517,-71.302747
970,NARRAGANSETT AT CHEPSTOW HOUSE,41.475495,-71.304955
975,BOSTON NECK NS EMERY,41.478025,-71.435953
980,BOSTON NECK AT 909 BOSTON NECK,41.475666,-71.435073
985,NARRAGANSETT AT NARRAGANSETT HALL,41.475598,-71.302763
1010,BELLEVUE FS DIXON,41.477153,-71.308055
1030,KINGSTOWN AT 2327 KINGSTOWN RD,41.476133,-71.518739
1035,KINGSTOWN FS WAYSIDE,41.474451,-71.517491
1040,BELLEVUE NS PERRY,41.479251,-71.308596
1055,BOSTON NECK OPP CONANICUS,41.479319,-71.436179
1060,BOSTON NECK NS CONANICUS,41.479532,-71.436402
1070,KINGSTOWN AT 2318 KINGSTOWN,41.475945,-71.518724
1075,KINGSTOWN FS NORTH RD,41.480003,-71.522949
1080,KINGSTOWN FS RT 138,41.479607,-71.520794
1085,KINGSTOWN AT 2579 KINGSTOWN RD,41.480197,-71.524366
1095,BELLEVUE FS BOWERY,41.480894,-71.308547
1100,BELLEVUE FS E BOWERY,41.481051,-71.308429
1120,UPPER COLLEGE NS RT 138,41.48119,-71.525551
1125,KINGSTOWN AT GRAD VILLAGE APTS,41.482005,-71.535882
1140,LOWER COLLEGE NS BAYBERRY,41.482182,-71.529691
1145,BELLEVUE OPP TENNIS HALL OF FAME,41.482559,-71.308563
1150,BELLEVUE AT TENNIS HALL OF FAME,41.48295,-71.308448
1155,LOWER COLLEGE OPP ST AUGUSTINES CHURCH,41.481905,-71.529871
1165,BOSTON NECK NS MOUNTVIEW,41.483023,-71.436962
1175,KINGSTOWN FS W INDEPENDENCE,41.482871,-71.540778
1180,UPPER COLLEGE NS CAMPUS,41.482731,-71.525703
1185,UPPER COLLEGE FS CAMPUS,41.482725,-71.525816
1190,CAMPUS AT COLLEGE OF PHARMACY,41.483487,-71.528164
1205,KINGSTOWN NS WAITES CORNER,41.482979,-71.551555
1210,BELLEVUE FS DOWNING,41.485734,-71.308748
1215,BELLEVUE FS PELHAM,41.485142,-71.308774
1225,URI STUDENT UNION,41.484315,-71.529311
1230,KINGSTON RAILROAD STATION,41.484102,-71.560243
1245,BOSTON NECK OPP GARDENIA,41.485199,-71.437187
1250,BOSTON NECK FS GARDENIA,41.485433,-71.437117
1295,BOSTON NECK OPP 1141 BOSTON NECK,41.488035,-71.437646
1300,BELLEVUE NS CHURCH,41.487185,-71.309318
1305,BELLEVUE NS ZION,41.487638,-71.309422
1315,TOURO NS HIGH,41.488671,-71.311134
1330,TOURO NS TOURO CT,41.489805,-71.314371
1340,MARLBOROUGH NS THAMES,41.490822,-71.315476
1345,MARLBOROUGH OPP DUKE,41.49095,-71.315198
1365,MARLBOROUGH NS FAREWELL,41.491325,-71.313491
1370,MARLBOROUGH FS BROADWAY,41.491412,-71.31281
1375,NEWPORT CITY HALL,41.491852,-71.311566
1380,GATEWAY CENTER AT 60 BUS BERTH,41.491412,-71.317804
1381,GATEWAY CENTER AT TROLLEY STOP,41.491752,-71.317621
1382,GATEWAY CENTER AT 63 BUS BERTH,41.491053,-71.318003
1383,GATEWAY CENTER AT 64 BUS BERTH,41.491485,-71.317772
1384,GATEWAY CENTER AT 14 BUS BERTH,41.491545,-71.31775
1395,BOSTON NECK FS S FERRY,41.492364,-71.437984
1400,BOSTON NECK NS BRIDGETOWN,41.492409,-71.43815
1420,THIRD FS BRIDGE,41.492298,-71.318642
1430,BROADWAY BETWEEN COLLINS & MANN,41.492751,-71.310805
1435,BROADWAY FS AYRAULT,41.493536,-71.309679
1450,BOSTON LAKE NS EDGEWATER RD,41.494846,-71.437896
1455,BOSTON NECK OPP EDGEWATER,41.494793,-71.437764
1460,TOWER HILL PARK N RIDE,41.495043,-71.456464
1465,THIRD AT WALNUT,41.49467,-71.318955
1475,BROADWAY NS CRANSTON,41.49503,-71.308822
1480,BROADWAY NS EQUALITY PARK,41.494471,-71.30915
1495,NARRAGANSETT FS HOWLAND,41.496192,-71.371722
1505,NORTH NS AT 1 NORTH RD,41.496551,-71.374702
1510,BROADWAY NS CLINTON,41.496347,-71.308343
1515,NARRAGANSETT AT 20 NARRAGANSETT,41.49637,-71.368745
1520,NARRAGANSETT FS GRINNELL,41.496315,-71.371732
1525,NARRAGANSETT FS E SHORE RD,41.496382,-71.367405
1526,CONANICUS FS NARRAGANSETT,41.496595,-71.367009
1530,THIRD NS LASALLE,41.497507,-71.319305
1535,BOSTON NECK FS BANFIELD,41.497986,-71.4363
1540,BROADWAY NS FRIENDSHIP,41.49799,-71.30734
1545,BOSTON NECK NS PETTAQUAMSCUTT LAKE,41.497967,-71.436521
1555,BROADWAY OPP FRIENDSHIP,41.498142,-71.30741
1565,NORTH NS VALLEY,41.498233,-71.374589
1575,CONANICUS FS KNOWLES,41.496757,-71.367143
1590,BROADWAY NS SUMMER,41.499798,-71.306406
1595,BROADWAY NS GIBBS,41.499862,-71.306139
1600,THIRD FS CYPRESS,41.499988,-71.319747
1605,THIRD OPP CYPRESS,41.500429,-71.319726
1610,BOSTON NECK OPP RIVERDELL,41.500947,-71.433596
1615,BOSTON NECK NS RIVERDELL,41.500993,-71.433797
1625,BROADWAY NS BROOKS,41.501178,-71.305113
1635,BROADWAY NS GREEN,41.501871,-71.30471
1645,THIRD AT BAYSIDE VILLAGE,41.501716,-71.319844
1650,THIRD OPP BAYSIDE VILLAGE,41.501766,-71.320017
1660,BOSTON NECK NS INDIAN TRAIL,41.502256,-71.43213
1665,BROADWAY NS COUNTY,41.502906,-71.303693
1670,BROADWAY NS THURSTON,41.503163,-71.303639
1685,RT 1 NS WALMSLEY LN,41.50376,-71.45929
1695,THIRD OPP DYERS GATE,41.503582,-71.320243
1705,BROADWAY NS VERNON,41.503961,-71.302835
1715,THIRD OPP NAVAL HEALTH CLINIC,41.504382,-71.320194
1720,BROADWAY OPP CANONICUS,41.505017,-71.301968
1725,BOSTON NECK FS MINER,41.504953,-71.428414
1730,BOSTON NECK NS MINER,41.505015,-71.42862
1735,BROADWAY NS CANONICUS,41.505043,-71.302186
1745,CONANICUS NS MT HOPE,41.504757,-71.364472
1755,ADM KALBFUS AT AT ADMIRAL'S GATE,41.506695,-71.319325
1760,ADMIRAL KALBUS NS ROWLAND,41.50619,-71.302662
1770,ADM KALBFUS OPP ROWLAND,41.506187,-71.302274
1775,CONNELL HWAY AT NEWPORT TIRE,41.507682,-71.317696
1776,CONANICUS NS MT HOPE AVE,41.50488,-71.364623
1777,EAST SHORE NS FREEBODY (RI TURNPIKE AUTHORITY),41.5111,-71.36526
1780,ADM KALBFUS NS SAGAMORE,41.506806,-71.304989
1810,ADM KALBFUS AT NEWPORT GRAND,41.507618,-71.313161
1820,W MAIN NS DUDLEY,41.507228,-71.301742
1830,ADM KALBFUS OPP NEWPORT GRAND,41.507898,-71.312605
1835,CONNELL HWAY OPP NISSAN VOLVO,41.508102,-71.317583
1850,GIRARD NS ADM KALBFUS,41.508148,-71.311638
1860,GIRARD NS SUNSET,41.51296,-71.31328
1865,CONNELL  HWAY AT NEWPORT ADULTS VIDEO,41.511545,-71.318059
1870,NEWPORT TOWNE CENTER (LAUNDROMAT),41.511926,-71.317415
1875,BOSTON NECK NS FERRY,41.507607,-71.42496
1880,BOSTON NECK FS FERRY,41.507661,-71.425119
1890,NEWPORT TOWNE CENTER (WALMART),41.510625,-71.316887
1895,NEWPORT TOWNE CENTER (STOP&SHOP),41.508474,-71.31643
1900,W MAIN AT RODEWAY INN,41.506577,-71.301524
1905,HILLSIDE NS EISENHOWER,41.509678,-71.307751
1915,HILLSIDE NS BEACON,41.511967,-71.308767
1920,W MAIN NS STOCKTON,41.509392,-71.301921
1940,W MAIN FS ROSEDALE,41.511214,-71.302368
1945,WYOMING PARK & RIDE (RICHMOND),41.511973,-71.689832
1955,W MAIN AT 211 W MAIN,41.511411,-71.302233
1975,HILLSIDE OPP SGT GREENE,41.51288,-71.309615
1976,HILLSIDE OPP 218 HILLSIDE,41.514642,-71.309741
1980,W MAIN FS BEACON,41.513742,-71.301747
1990,W MAIN FS BEACON,41.513881,-71.301579
2005,HILLSIDE AT 216 HILLSIDE,41.514646,-71.309865
2010,GIRARD FS FESTIVAL FIELD APTS,41.511682,-71.313096
2015,W MAIN AT MOBIL STATION,41.515144,-71.301354
2020,CONNELL HWAY NS MAPLE,41.515053,-71.316041
2025,CONNELL OPP HILLMART,41.515038,-71.316217
2035,W MAIN FS SMYTHE,41.51556,-71.30103
2045,HILLSIDE NS MAPLE,41.515906,-71.309734
2055,MAPLE NS JOHN CHAFFEE BLVD,41.515894,-71.312682
2060,MAPLE AT HEAD START CENTER,41.516108,-71.312361
2065,BOSTON NECK OPP CHARLOTTE,41.516748,-71.423412
2070,BOSTON NECK FS CHARLOTTE,41.516702,-71.42324
2075,W MAIN AT BANK OF NEWPORT,41.517222,-71.300606
2080,E MAIN OPP NEWPORT MART,41.517093,-71.299326
2085,E MAIN AT NEWPORT MARKET,41.517257,-71.299285
2090,CODDINGTON NS JOHN CHAFEE BLVD,41.518131,-71.313698
2100,E MAIN OPP 114 E MAIN,41.517743,-71.297004
2105,CODDINGTON NS W MAIN,41.518233,-71.300648
2125,E MAIN AT SHELL GAS,41.518568,-71.294068
2140,CODDINGTON OPP HARBOR BASE INN,41.519375,-71.311716
2145,CODDINGTON NS NIAGRA,41.518598,-71.30307
2150,CODDINGTON NS JONES,41.518765,-71.304618
2155,CODDINGTON NS SHERMAN,41.518855,-71.306072
2165,CODDINGTON AT BAYVIEW PARK,41.519018,-71.307398
2170,CODDINGTON OPP SHERMAN,41.519007,-71.305795
2175,CODDINGTON AT RIPTA GARAGE,41.519275,-71.309746
2180,CODDINGTON OPP BAYVIEW TRAILER PARK,41.519162,-71.307064
2185,E MAIN NS VALLEY,41.5191,-71.293092
2195,W MAIN NS MAPLEWOOD,41.519281,-71.299718
2200,CODDINGTON OPP RIPTA GARAGE,41.519474,-71.309638
2205,E MAIN NS ENTERPRISE DR,41.519548,-71.290906
2210,E MAIN FS ENTERPRISE,41.519676,-71.291209
2215,E MAIN AT 351 E MAIN,41.520224,-71.288675
2230,VALLEY OPP CHESTNUT HILL,41.520791,-71.294159
2235,W MAIN NS OAKWOOD,41.521651,-71.298915
2240,E MAIN NS FOREST,41.521046,-71.285532
2245,BOSTON NECK FS HOMESTEAD,41.521254,-71.424046
2250,BOSTON NECK OPP SNUFF MILL,41.52242,-71.423628
2255,E MAIN NS FOREST,41.521104,-71.285845
2260,RT 1 AT 2299 TOWER HILL,41.51492,-71.461385
2265,E MAIN NS AQUIDNECK,41.521684,-71.283372
2270,E MAIN FS AQUIDNECK,41.521665,-71.28407
2275,RT 1 FS SHERMANTOWN,41.52401,-71.4648
2280,VALLEY OPP NAPA AUTO,41.521838,-71.29474
2285,E MAIN AT 644 E MAIN,41.52421,-71.279173
2290,E MAIN FS WYATT,41.52286,-71.281137
2295,W MAIN AT MIDDLETOWN PUBLIC LIBRARY,41.521907,-71.299019
2300,W MAIN NS VALLEY,41.523402,-71.298232
2305,VALLEY NS W MAIN,41.523824,-71.297541
2310,W MAIN OPP VALLEY,41.52402,-71.298223
2315,W MAIN FS WOOLSEY,41.524878,-71.29768
2320,BOSTON NECK OPP 1865 BOSTON NECK,41.524558,-71.423991
2325,BOSTON NECK NS BARBERS HEIGHTS,41.524298,-71.424082
2335,W MAIN NS CHASES,41.525923,-71.297526
2340,E MAIN NS TURNER,41.52588,-71.276159
2345,E MAIN OPP TURNER,41.526101,-71.276117
2360,RT 1A & RT 138 PARK&RIDE (curbside),41.526992,-71.425556
2361,TASHTASSUCK FS HELM,41.525592,-71.385276
2365,W MAIN AT ALL SAINTS ACADEMY,41.527304,-71.296415
2370,BOSTON NECK NS RT-138 WEST [ON-RAMP],41.530551,-71.428171
2380,NUWC GATE 17,41.529203,-71.307644
2385,W MAIN AT 936 W MAIN,41.528018,-71.296217
2390,E MAIN OPP CHAVES GARDENS,41.530294,-71.272856
2395,E MAIN NS MEADOW LN,41.529703,-71.273136
2405,W MAIN AT 999 W MAIN (PLAZA),41.529581,-71.294749
2410,W MAIN OPP 999 W MAIN,41.529655,-71.294937
2415,W MAIN NS FOREST,41.530666,-71.293986
2425,W MAIN OPP FOREST,41.53102,-71.293965
2430,E MAIN NS OLIPHANT,41.53186,-71.271331
2435,E MAIN NS OLIPHANT,41.532157,-71.271246
2440,W MAIN NS VANICEK,41.532627,-71.293429
2445,W MAIN AT CARDI'S FURNITURE,41.533073,-71.29307
2455,W MAIN NS BRIGHT IDEAS,41.534933,-71.292692
2460,W MAIN AT MIDDLETOWN SQUARE PLAZA,41.534557,-71.292583
2470,W MAIN NS BROWNS LANE SHOPPING CTR,41.53788,-71.291856
2475,STOP&SHOP (WEST MAIN ROAD - MIDDLETOWN),41.536636,-71.293336
2480,W MAIN AT 1397 W MAIN,41.537387,-71.291786
2490,RT 1 NS SHADY LEA,41.538606,-71.468498
2495,E MAIN OPP MITCHELL,41.538183,-71.265849
2500,E MAIN NS MITCHELLS,41.537955,-71.265797
2505,BOSTON NECK OPP GILBERT STUART RD,41.538758,-71.438657
2510,BOSTON NECK NS GILBERT STUART RD,41.538893,-71.438993
2515,W MAIN OPP 1522 W MAIN,41.539573,-71.291406
2520,W MAIN NS SQUANTUM,41.540951,-71.291684
2525,E MAIN NS WOODLAND,41.541306,-71.263527
2530,E MAIN OPP RANDALL,41.540815,-71.264004
2535,W MAIN OPP SQUANTUM,41.540978,-71.291483
2540,E MAIN FS PAQUINS LN,41.544789,-71.261351
2545,E MAIN FS SELINA,41.545417,-71.260693
2550,W MAIN NS THELMA,41.543549,-71.29165
2555,BOSTON NECK FS WEAVER (southern intersection),41.543739,-71.441227
2560,BOSTON NECK OPP WEAVER,41.54407,-71.441132
2565,W MAIN FS MARSHALL,41.545131,-71.291846
2570,OXBOW APTS,41.543701,-71.292799
2575,E MAIN AT AQUIDNECK CHRISTIAN ACADEMY,41.546435,-71.259947
2585,RT 4 FS W ALLENTON,41.545561,-71.477161
2595,W MAIN AT 1776 W MAIN,41.546547,-71.292033
2600,W MAIN AT 1761 W MAIN,41.546223,-71.291778
2605,W MAIN NS GREEN LANE,41.548501,-71.29217
2610,BOSTON NECK FS WEAVER & HAMILTON ALLENTON RD,41.548185,-71.441464
2615,BOSTON NECK NS SALISBURY,41.548244,-71.441313
2620,W MAIN NS PASTURE FARMS,41.54818,-71.291973
2625,E MAIN NS SANDY POINT,41.550809,-71.25766
2630,E MAIN OPP SANDY PT,41.550787,-71.257789
2640,BOSTON NECK NS WALDRON,41.552523,-71.44077
2650,BOSTON NECK OPP EARL,41.55469,-71.441097
2660,BOSTON NECK OPP DUCK COVE,41.557389,-71.443037
2665,E MAIN NS UNION,41.558025,-71.25534
2670,E MAIN AT 880 E MAIN,41.558492,-71.255379
2675,BOSTON NECK FS EARLE,41.554835,-71.440886
2680,BOSTON NECK AT 429 BOSTON NECK,41.558566,-71.443893
2685,W MAIN NS UNION,41.558869,-71.287668
2695,BOSTON NECK FS DUCK COVE,41.557597,-71.442932
2700,BOSTON NECK AT 392 BOSTON NECK,41.559494,-71.444361
2705,BOSTON NECK NS FAIRWAY,41.560442,-71.445238
2710,W MAIL OPP MAIL COACH,41.560639,-71.286754
2715,E MAIN NS GLEN,41.561009,-71.25419
2720,BOSTON NECK OPP 270 BOSTON NECK,41.562044,-71.446391
2725,BOSTON NECK FS BEACH,41.565576,-71.448756
2730,BOSTON NECK AT 270 BOSTON NECK,41.562423,-71.446428
2735,W MAIN AT 2243 W MAIN,41.562712,-71.286128
2740,E MAIN OPP GLEN RD,41.561224,-71.254288
2745,BOSTON NECK OPP REYNOLDS,41.56659,-71.449903
2750,BOSTON NECK NS BEACH,41.565429,-71.448489
2755,W MAIN OPP 2243 W MAIN,41.562254,-71.286129
2760,BAYVIEW APARTMENTS,41.565974,-71.284734
2765,BOSTON NECK NS REYNOLDS,41.566631,-71.449809
2770,E MAIN NS EYLER,41.568236,-71.251127
2775,E MAIN NS BEAUPRE,41.565429,-71.25262
2780,BOSTON NECK AT 45 BOSTON NECK,41.567678,-71.451148
2785,W MAIN FS RAYTHEON ENTRANCE,41.56988,-71.277513
2810,W MAIN OPP RAYTHEON,41.570219,-71.276863
2815,PHILLIPS AT 84 PHILLIPS,41.568111,-71.454952
2850,RT 4 NS LAFAYETTE,41.57158,-71.49305
2870,E MAIN NS MCCORRIE,41.572289,-71.250954
2875,E MAIN OPP MCCORRIE,41.57263,-71.251185
2890,W MAIN OPP SCOTTY DR,41.575695,-71.271663
2900,POST FS SUMMIT VIEW,41.572506,-71.462092
2910,E MAIN OPP MARTENS,41.575163,-71.251429
2915,W MAIN NS JOHN,41.575644,-71.271918
2920,POST OPP JUNIPER,41.575557,-71.461085
2925,POST NS JUNIPER,41.575742,-71.461147
2930,W MAIN OPP STRINGHAM,41.577688,-71.270929
2935,POST NS INTREPID,41.577911,-71.460353
2940,W MAIN AT 1575 W MAIN,41.577411,-71.271286
2945,POST FS INTREPID,41.577687,-71.460236
2950,W MAIN NS MILL,41.57916,-71.270422
2960,E MAIN FS SHERWOOD,41.578243,-71.251991
2965,W MAIN OPP MILL,41.579202,-71.270591
2970,E MAIN NS MARVEL,41.574725,-71.251519
2975,E MAIN NS FAIRVIEW,41.579942,-71.252284
2980,RT 2 AT BALD HILL GARDEN CTR,41.574248,-71.516335
2995,RT 2 FS HOME DEPOT ENTRANCE,41.584437,-71.500866
29966,RT 2 NS HOME DEPOT ENTRANCE,41.584441,-71.500986
3000,E MAIN BETWEEN ETHEL & PINE TREE,41.583748,-71.252218
3005,E MAIN AT 1944 E MAIN,41.583889,-71.252424
3010,POST NS HULING,41.58539,-71.458818
3020,E MAIN AT 2050 E MAIN,41.587071,-71.252806
3030,W MAIN OPP MELVILLE ELEMENTARY,41.583198,-71.269433
3035,E MAIN FS LEPES,41.585827,-71.252207
3040,POST OPP 7805 POST,41.585783,-71.458554
3045,POST OPP 7760 POST,41.586855,-71.45845
3055,W MAIN NS BRADFORD,41.583362,-71.269629
3060,POST AT 7708 POST,41.588263,-71.457887
3070,W MAIN FS KING CHARLES,41.59131,-71.266769
3075,W MAIN NS KING CHARLES,41.591357,-71.266927
3080,POST NS OAKDALE,41.590047,-71.457417
3085,POST NS OAKDALE,41.59032,-71.457545
3090,E MAIN NS SEA MEADOW,41.587144,-71.252631
3095,E MAIN ND HEDLY,41.59042,-71.253728
3100,E MAIN AT PORTSMOUTH POLICE HQ,41.592158,-71.253521
3105,E MAIN NS HEDLY,41.590066,-71.253504
3110,POST AT 1540 POST,41.592592,-71.456677
3115,POST OPP 7540 POST,41.592667,-71.456803
3120,W MAIN OPP HEDLY,41.594099,-71.264963
3130,POST AT 7440 POST,41.595082,-71.455897
3145,E MAIN AT RITE AID,41.596872,-71.251729
3150,E MAIN AT 2451 E MAIN,41.596877,-71.251507
3155,POST FS CAMP,41.5976,-71.455157
3170,POST AT 7260 POST,41.599779,-71.454724
3175,E MAIN AT 2588 E MAIN,41.600347,-71.250171
3180,POST AT 7277 POST,41.60079,-71.454867
3185,E MAIN FS TURNPIKE,41.601115,-71.249393
3190,E MAIN FS FREEBORN,41.601241,-71.249489
3195,E MAIN NS CHURCH LN,41.6019,-71.248235
3210,W MAIN FS FREEBORN,41.604163,-71.258605
3215,E MAIN AT 2708 E MAIN,41.602887,-71.247628
3225,E MAIN NS POWER,41.606115,-71.247038
3230,E MAIN OPP POWER,41.606127,-71.247176
3235,RT 2 & RT 4 PARK&RIDE (curbside),41.611758,-71.492429
3250,POST NS DEVILS FOOT,41.607345,-71.455929
3265,W MAIN OPP FREEBORN,41.604075,-71.258807
3280,E MAIN NS VILLAGE WAY,41.610542,-71.246461
3285,W MAIN OPP 372 W MAIN,41.605575,-71.25901
3290,E MAIN OPP VILLAGE WAY,41.610829,-71.246584
3295,POST AT 6851 POST,41.611184,-71.457249
3300,POST NS 6946 POST,41.608966,-71.456226
3310,RT 2 NS WAITES CORNER,41.495237,-71.569583
3315,W MAIN OPP ANSELMO,41.611053,-71.260148
3320,W MAIN OPP WILLOW LN,41.613465,-71.258178
3325,POST NS KING PHILLIP,41.614106,-71.457702
3330,W MAIN NS WILLOW,41.61356,-71.258247
3335,POST AT 6854 POST,41.611386,-71.457048
3340,E MAIN OPP SPRAGUE,41.614854,-71.245837
3345,E MAIN AT 3124 E MAIN,41.613898,-71.246113
3355,E MAIN OPP IRVING GAS,41.617523,-71.246125
3360,BRISTOL FERRY FS SPRAGUE,41.615384,-71.256218
3370,E MAIN OPP 3281 E MAIN,41.617327,-71.246244
3375,POST FS KINGSTOWN PLAZA ENTRANCE,41.616003,-71.457993
3380,POST NS CHADSEY,41.61389,-71.457551
3385,BRISTOL FERRY FS BROWNELL,41.618021,-71.256829
3400,POST AT 6669 POST,41.616754,-71.457783
3415,E MAIN NS PARK,41.620046,-71.245345
3420,E MAIN FS BASIN,41.62006,-71.245481
3430,POST AT KINGSTOWN MOTEL,41.620094,-71.458086
3435,POST OPP PEACHTREE,41.621529,-71.458508
3440,POST FS PEACHTREE,41.621954,-71.458258
3445,E MAIN NS ECHO,41.621496,-71.244826
3450,E MAIN OPP 66 E MAIN,41.621968,-71.244379
3455,BRISTOL FERRY OPP CORY CT,41.619745,-71.256794
3460,BRISTOL FERRY NS BROWNELL,41.617924,-71.256983
3465,BRISTOL FERRY FS CORY CT,41.619542,-71.256959
3470,E MAIN FS FOUNDERS,41.623382,-71.243862
3475,E MAIN OPP FOUNDERS,41.623309,-71.243716
3485,BRISTOL FERRY OPP SCHOONER,41.621112,-71.256892
3490,BRISTOL FERRY OPP BOTELHO,41.624208,-71.256236
3495,POST OPP MEMORIAL CEMETARY,41.624623,-71.459199
3505,E MAIN OPP SUNSET,41.625488,-71.242659
3510,E MAIN FS SUNSET,41.625436,-71.242934
3515,BRISTOL FERRY AT 309 BRISTOL FERRY,41.623391,-71.256264
3520,BRISTOL FERRY FS MITCHELL,41.626572,-71.255615
3525,POST OPP ESSEX,41.627417,-71.461362
3530,POST NS ESSEX,41.627133,-71.460971
3535,BRISTOL FERRY AT 531 BRISTOL FERRY,41.628846,-71.254782
3545,BOYDS LANE OPP OLD BOYDS,41.630135,-71.245619
3550,BOYDS LANE FS RTE. 24,41.627633,-71.243603
3555,POST AT 6145 POST,41.62958,-71.46335
3560,POST FS AUSTIN,41.630653,-71.464234
3565,BOYDS LANE OPP LINDA,41.631401,-71.249659
3570,BOYDS LANE FS BRISTOL FERRY,41.632202,-71.252939
3575,BRISTOL FERRY NS PORTERS,41.630756,-71.254268
3580,BRISTOL FERRY FS SHORELINE TERRACE,41.631742,-71.253824
3585,POST AT 6000 POST,41.63205,-71.46607
3595,POST OPP JT'S BUILDING SUPPLY,41.63225,-71.466835
3600,POST OPP FRANKLIN,41.635455,-71.467982
3605,POST NS FRENCHTOWN,41.633667,-71.468373
3610,POST FS 5804 POST,41.637661,-71.468383
3615,POST NS FRANKLIN,41.63559,-71.46826
3620,POST AT 5805 POST,41.637543,-71.468649
3630,POST AT 5732 POST,41.639642,-71.468654
3635,POST FS VICTORY,41.643157,-71.46582
3637,POST FS GRANDVIEW,41.639686,-71.468924
3640,POST NS OVERFIELD,41.645987,-71.463324
3642,POST AT 5627 POST,41.641866,-71.467425
3645,POST NS S PIERCE,41.642591,-71.466082
3650,POST FS CROSSWAYS,41.647525,-71.461489
3655,POST FS OVERFIELD,41.64589,-71.463222
3660,FERRY RD FS LOW LN,41.647682,-71.26214
3665,POST NS 5329 POST,41.648469,-71.459995
3670,FERRY RD AT ROGER WILLIAMS UNIV,41.647994,-71.261906
3675,POST NS FORGE,41.6484,-71.45979
3690,MAIN OPP 1001 MAIN,41.650908,-71.457277
3695,MAIN FS 1003 MAIN,41.650827,-71.457636
3715,MAIN FS SIXTH,41.652498,-71.455939
3720,MAIN NS SIXTH,41.652498,-71.456194
3725,FERRY RD NS AMBROSE,41.653555,-71.264463
3730,FERRY OPP AMBROSE,41.653477,-71.264526
3740,MAIN NS THIRD,41.654247,-71.454834
3745,MAIN NS THIRD,41.654053,-71.454768
3750,FERRY RD FS SIDNEY,41.655351,-71.265123
3755,FERRY OPP SIDNEY,41.655229,-71.265166
3760,MAIN AT 640 MAIN,41.655663,-71.45357
3765,MAIN NS FIRST,41.655687,-71.453711
3775,FIRST OPP CLIFF,41.65591,-71.455198
3800,MAIN FS VINE,41.656561,-71.452678
3805,MAIN OPP BRIDGE,41.65688,-71.452515
3810,EXIT 7 PARK 'N' RIDE (WEST GREENWICH),41.656876,-71.551366
3815,FERRY AT 133 FERRY RD,41.65738,-71.265976
3820,FERRY RD NS GRISWOLD,41.657236,-71.265835
3835,MAIN NS UNION,41.657862,-71.451207
3840,MAIN OPP UNION,41.657919,-71.451392
3855,METACOM NS GRISWOLD,41.65903,-71.258745
3860,MAIN FS LONDON,41.658912,-71.450137
3865,FERRY RD NS FAIRVIEW,41.659269,-71.266562
3870,METACOM NS GRISWOLD,41.659357,-71.258791
3885,MAIN NS PIERCE,41.658974,-71.450268
3890,MAIN FS QUEEN,41.660847,-71.449877
3900,HOPE NS 10 HOPE ST,41.660493,-71.26801
3910,HOPE OPP HIGH,41.661275,-71.270375
3915,HOPE NS HIGH,41.661259,-71.270113
3920,MAIN FS CHURCH,41.661607,-71.450069
3930,MAIN FS CHURCH,41.66175,-71.449917
3975,METACOM AT 205 METACOM,41.662644,-71.25708
3980,METACOM OPP 205 METACOM,41.662479,-71.257001
4015,MAIN FS POST,41.663729,-71.450203
4020,HOPE FS BURTON,41.664018,-71.273609
4025,MAIN NS DIVISION,41.663764,-71.45002
4030,HOPE OPP BURTON,41.663975,-71.273758
4035,POST FS LADD,41.66539,-71.450107
4040,HOPE NS UNION,41.665457,-71.274621
4045,METACOM NS WOODLAWN,41.665677,-71.257471
4050,METACOM FS WOODLAWN,41.665922,-71.257361
4055,POST AT 4575 POST,41.666283,-71.450005
4060,HOPE NS CONSTITUTION,41.667033,-71.275187
4065,HOPE FS UNION,41.66539,-71.274712
4070,POST OPP COREY,41.667295,-71.449485
4085,HOPE NS CHURCH,41.668694,-71.275826
4090,HOPE NS CHURCH,41.668831,-71.27602
4095,HOPE NS STATE,41.670306,-71.276445
4100,HOPE NS STATE,41.670508,-71.276669
4105,POST NS BAY VIEW,41.670154,-71.448286
4115,METACOM FS MT HOPE,41.670746,-71.258519
4120,METACOM OPP MT HOPE,41.670884,-71.258409
4130,HOPE AT 573 HOPE ST,41.672162,-71.277277
4135,POST AT 4372 POST,41.672056,-71.447974
4140,WOODLAND AT 210 WOODLAND MANOR,41.672429,-71.591296
4150,METACOM FS WOBURN,41.672632,-71.258946
4160,METACOM NS TOWER,41.673363,-71.25896
4175,HOPE NS FRANKLIN,41.673613,-71.277663
4180,HOPE NS FRANKLIN,41.673858,-71.277862
4190,WOODLAND MANOR,41.673582,-71.594275
4195,WOODTHRUSH OPP GOLDFINCH,41.67446,-71.591534
4200,POST FS WOLVERSTONE,41.674528,-71.448218
4205,POST NS WOLVERSTONE,41.674469,-71.448359
4215,HOPE NS OLIVER,41.675257,-71.278255
4220,HOPE AT 711 HOPE ST,41.674894,-71.27822
4230,METACOM AT 370 METACOM,41.676217,-71.259564
4235,TIOGUE AT 1395 TIOGUE,41.675236,-71.592809
4240,HOPE FS WASHINGTON,41.677398,-71.278625
4250,HOPE NS WASHINGTON,41.677305,-71.278791
4255,POST FS NEPTUNE,41.676845,-71.448458
4260,POST AT HIGHPOINT,41.676913,-71.448622
4265,METACOM FS FRANKLIN,41.676732,-71.259808
4275,NOOSENECK OPP WISTERIA,41.6779,-71.588267
4290,TIOGUE FS WISTERIA,41.677895,-71.588632
4295,1193 TIOGUE,41.67887,-71.585379
4300,TIOGUE AT 1072 TIOGUE,41.679127,-71.579319
4305,HOPE NS SILVER CREEK MANOR,41.679288,-71.27855
4310,HOPE AT 837 HOPE ST,41.679251,-71.278734
4315,METACOM NS HOPEWORTH,41.680805,-71.260513
4325,TIOGUE OPP 1100 TIOGUE AVE (MCDONALD'S),41.679195,-71.579574
4330,METACOM NS BAYVIEW,41.679963,-71.260486
4335,POST FS CRESTWOOD,41.679097,-71.449273
4345,TIOGUE - JOBLOT,41.680522,-71.582986
4346,TIOGUE OPP JOBLOT,41.678893,-71.583607
4350,POST AT 4100 POST,41.679114,-71.449123
4360,S MAIN FS LOWELL,41.680398,-71.574417
4365,S MAIN OPP NAPA AUTO,41.680537,-71.573586
4370,POST AT 4042 POST,41.680679,-71.449817
4375,HOPE AT 889 HOPE ST,41.681233,-71.278813
4380,METACOM OPP ACADEMY,41.681696,-71.260868
4385,S MAIN OPP IAN,41.681041,-71.571584
4395,HOPE NS HILLSIDE,41.681267,-71.278668
4400,POST OPP 4060 POST,41.680266,-71.449851
4420,S MAIN NS HOPKINS HILL,41.682147,-71.568912
4435,POST FS HIGHLAND,41.682586,-71.451006
4440,POST OPP HIGHLAND,41.68282,-71.450953
4445,HOPE OPP SHEFFIELD,41.683127,-71.278884
4450,HOPE OPP USHER TER,41.682845,-71.278758
4460,S MAIN OPP RATHBUN,41.683521,-71.567778
4465,POST NS ISLAND VIEW,41.684262,-71.452354
4470,COWESETT NS ASHTON,41.684489,-71.520432
4475,MAIN FS COWESETT,41.685069,-71.523411
4480,COWESSET FS CHURCH,41.684544,-71.520431
4485,COWESETT OPP DOUNETOS,41.684617,-71.516388
4495,S MAIN OPP MANOR,41.684236,-71.567541
4500,POST FS VALENTINE,41.685612,-71.453747
4505,METACOM OPP 467 METACOM,41.684929,-71.261429
4510,METACOM OPP VETERANS HOME,41.685189,-71.261669
4515,COWESETT OPP 242 COWESETT,41.684817,-71.509016
4525,COWESETT OPP HIGHVIEW,41.684709,-71.513772
4530,COWESETT NS TINA,41.684882,-71.506237
4535,COWESETT OPP 328 COWESETT,41.684951,-71.502908
4540,COWESSET OPP HOLLOW CIRCLE,41.684756,-71.514106
4545,HOPE FS VANTAGE PT,41.68518,-71.278928
4550,COWESETT AT 328 COWESETT,41.68501,-71.503179
4555,S MAIN NS STONE,41.685943,-71.567241
4560,COWESETT AT 250 COWESETT,41.684908,-71.508437
4570,HOPE AT BENJAMIN CHURCH SENIOR CTR,41.685491,-71.278854
4575,POST OPP COWESETT,41.685728,-71.453689
4580,POST AT 3791 POST,41.686872,-71.454709
4585,MAIN OPP SCHOOL,41.686403,-71.522977
4590,COWESSETT CORNERS STOP & SHOP,41.686207,-71.498353
4595,S MAIN NS WOOD,41.685948,-71.567145
4600,OAKLAND BEACH NS SUBURBAN PKWAY,41.686606,-71.398111
4610,MAIN NS BROWN,41.690245,-71.521554
4615,METACOM OPP CHESTNUT,41.687811,-71.262122
4620,MAIN NS NESTOR,41.687673,-71.522418
4625,METACOM NS CHESTNUT,41.687968,-71.26227
4630,OAKLAND BEACH FS MOHAWK,41.6881,-71.398312
4635,HOPE AT COLT STATE PARK ENTRANCE,41.688169,-71.279133
4640,HOPE FS COLT,41.688558,-71.279005
4645,POST NS SHENADOAH,41.688813,-71.455842
4655,OAKLAND BEACH AT 742 OAKLAND BEACH,41.688743,-71.398102
4660,POST OPP SHENANDOAH,41.689012,-71.455735
4670,S MAIN NS CADY,41.688296,-71.566786
4685,MAIN OPP MANCHESTER,41.688976,-71.521956
4690,S MAIN FS PARKER,41.689758,-71.566594
4705,METACOM AT 529 METACOM,41.689828,-71.262715
4715,METACOM AT 532 METACOM,41.690513,-71.262748
4720,MAIN AT 1527 MAIN,41.692572,-71.521039
4725,MAIN OPP SHOPPERS PARK,41.690328,-71.56613
4730,OAKLAND BEACH NS HAZARD,41.690668,-71.398289
4735,MAIN OPP SOUTH MAIN,41.690463,-71.565979
4740,POST NS CLYDE,41.691445,-71.456256
4750,MAIN AT 1070 MAIN,41.690526,-71.561842
4755,MAIN NS HOLDEN,41.690834,-71.563884
4760,WASHINGTON OPP SANDY BOTTOM,41.690692,-71.559267
4765,POST FS ROBIN HILL,41.690778,-71.456403
4770,MAIN FS SANDY BOTTOM,41.690739,-71.558884
4775,OAKLAND BEACH NS KENWAY,41.691568,-71.398071
4780,HOPE NS FALES,41.691727,-71.279345
4785,HOPE AT DEFIANCE,41.691884,-71.279198
4790,MAIN AT 1548 MAIN,41.69137,-71.521088
4795,WASHINGTON NS KNOTTY OAK RD,41.692389,-71.556284
4800,WASHINGTON FS KNOTTY OAK,41.692124,-71.5564
4805,MAIN OPP ROCHS PRODUCE,41.694891,-71.521744
4810,METACOM NS PAGANO,41.692669,-71.263219
4815,METACOM OPP PAGANO,41.692721,-71.263347
4820,OAKLAND BEACH NS COBURN,41.692523,-71.39833
4825,QUAKER LANE OPP KENT COUNTY COURTHOUSE,41.691726,-71.501198
4840,MAIN AT FOP CLUB HOUSE,41.692819,-71.521019
4850,MAIN AT 1050 MAIN,41.690608,-71.561758
4855,OAKLAND BEACH FS HOLT,41.693341,-71.398233
4860,HOPE AT SEABRA MARKET,41.69344,-71.279288
4865,POST NS BRAND,41.693621,-71.456414
4870,WASHINGTON AT 770 WASHINGTON,41.693005,-71.555149
4875,HOPE FS MULBERRY,41.694019,-71.279421
4880,WASHINGTON NS CONTENTMENT,41.694176,-71.553476
4890,WASHINGTON FS MAPLEDALE,41.694091,-71.553473
4895,WASHINGTON AT 699 WASHINGTON,41.694798,-71.550978
4900,MAIN NS WEST WARWICK,41.697014,-71.522072
4905,HOPE AT BRISTOL COUNTY MEDICAL CTR,41.695248,-71.279411
4915,BUTTONWOODS AT BUTTONWOODS TERRACE PLAZA,41.695186,-71.427334
4920,WASHINGTON FS PULASKI,41.695368,-71.536985
4925,WASHINGTON OPP MACARTHUR,41.695304,-71.538929
4935,OAKLAND BEACH OPP PINEHURST,41.695729,-71.398478
4940,WARWICK NECK BETWEEN BARTON & MEADOWVIEW,41.695292,-71.379216
4945,POST OPP BRAND,41.693735,-71.456644
4955,WASHINGTON FS EDWARD,41.69644,-71.542022
4960,MAIN AT ROCHS PRODUCE,41.694764,-71.52164
4965,WASHINGTON OPP READ,41.695503,-71.533665
4970,HOPE OPP 1185 HOPE ST,41.695457,-71.279547
4975,BUTTONWOODS AT 417 BUTTONWOODS,41.695325,-71.427557
4980,OAKLAND BEACH OPP ORMS,41.695417,-71.398637
4990,POST AT 3414 POST,41.696122,-71.458744
5000,METACOM AT 591 METACOM,41.694723,-71.263805
5005,METACOM NS GOODING,41.694162,-71.263486
5015,WASHINGTON NS LAUREL,41.696006,-71.547673
5020,WASHINGTON OPP LAUREL,41.696105,-71.547689
5025,BUTTONWOODS FS LONG,41.696307,-71.4281
5035,WASHINGTON OPP ANTHONY,41.696796,-71.546976
5040,WASHINGTON OPP ANDREWS,41.696373,-71.531988
5045,MAIN AT 1445 MAIN,41.697854,-71.522202
5055,WASHINGTON OPP HAZARD,41.697092,-71.543219
5060,WASHINGTON FS FAIRVIEW,41.697381,-71.543988
5065,HOPE NS GIBSON,41.697287,-71.279678
5070,HOPE OPP GIBSON,41.697283,-71.279503
5075,WARWICK NECK NS CROSSROAD,41.696548,-71.379252
5080,BUTTONWOODS NS KEELEY,41.697346,-71.428494
5085,RT 117 PARK & RIDE,41.697456,-71.473905
5090,WASHINGTON OPP 117 WASHINGTON,41.695601,-71.534341
5095,BUTTONWOODS OPP KEELEY,41.697632,-71.42881
5105,WARWICK NECK FS STUDLEY,41.697909,-71.379623
5110,MAIN AT 1425 MAIN,41.698841,-71.522307
5115,TOLLGATE AT 40 TOLLGATE,41.698509,-71.46491
5120,WARWICK NECK FS STUDLEY,41.698329,-71.37976
5130,POST NS CENTREVILLE (APPONAUG 4 CORNERS),41.698098,-71.459684
5140,POST FS CENTREVILLE,41.698342,-71.459964
5145,OAKLAND BEACH OPP LIMESTONE,41.698303,-71.398677
5155,MAIN NS EPWORTH,41.698326,-71.522187
5160,CENTERVILLE AT BURGER KING,41.698347,-71.462507
5165,HOPE OPP JEFFERSON,41.699134,-71.279608
5170,POST OPP WARWICK CITY HALL,41.698861,-71.458542
5175,BUTTONWOODS FS NOYLES,41.698982,-71.429546
5180,WEST SHORE OPP VALLEY,41.699183,-71.449838
5185,WEST SHORE NS VALLEY,41.699374,-71.449497
5200,HOPE NS JEFFERSON,41.699005,-71.27977
5205,TOLLGATE OPP EMILY,41.700128,-71.467716
5210,POST AT 3210 POST,41.699238,-71.455888
5220,METACOM OPP KICKEMUIT,41.69946,-71.264753
5225,METACOM FS KICKEMUIT,41.699537,-71.264613
5230,OAKLAND BEACH NS GORDON,41.699761,-71.399098
5235,WEST SHORE FS GEORGE ARDEN,41.699664,-71.44742
5245,WEST SHORE OPP GREELEY,41.699973,-71.444769
5250,TOLLGATE NS EMILY,41.699988,-71.467062
5255,MAIN AT 1387 MAIN,41.70002,-71.522642
5260,WEST SHORE NS TOURTELOTT,41.700034,-71.445133
5270,WEST SHORE AT 3388 WEST SHORE,41.700242,-71.443073
5275,OAKLAND BEACH NS INDIANA,41.700132,-71.398897
5280,WASHINGTON NS EAST,41.699953,-71.529316
5285,SAMUEL GORTON NS PALMER,41.70114,-71.376072
5290,WEST SHORE AT 3395 WEST SHORE,41.700329,-71.4434
5295,SAMUEL GORTON AT 407 SAMUEL GORTON,41.700527,-71.378615
5300,WASHINGTON NS BAKER,41.700377,-71.528729
5305,WEST SHORE OPP NORMANDY,41.700625,-71.440683
5310,WEST SHORE NS GROVELAND,41.700688,-71.440927
5320,WEST SHORE FS WESLEYAN,41.701146,-71.438047
5325,TOLLGATE AT 215 TOLLGATE RD,41.701102,-71.47049
5330,TOLLGATE AT 250 TOLLGATE,41.701448,-71.471762
5340,LONGMEADOW NS ELMDALE,41.703579,-71.374482
5345,SAMUEL GORTON AT 375 SAMUEL GORTON,41.701133,-71.376478
5350,BUTTONWOODS NS WEST SHORE,41.701012,-71.430173
5355,WEST SHORE NS BARBER,41.701573,-71.435132
5360,WEST SHORE AT 3238 WEST SHORE,41.700969,-71.438382
5370,OAKLAND BEACH NS VICTORY,41.702799,-71.398886
5380,HOPE FS COLONIAL,41.70153,-71.279912
5385,WEST SHORE OPP 3161 WEST SHORE,41.701374,-71.435868
5395,POST FS KENT,41.701861,-71.454479
5415,HOPE OPP COLONIAL,41.701969,-71.27979
5420,WEST SHORE OPP WEST SHORE TERRACE,41.701937,-71.432911
5425,WEST SHORE AT WEST SHORE TERRACE,41.701892,-71.43268
5426,WEST SHORE NS MCARTHER,41.702422,-71.429374
5430,METACOM AT 663 METACOM,41.701483,-71.265092
5445,METACOM AT METACOM CONDOMINIUMS,41.701873,-71.265283
5450,WEST SHORE FS CITY PARK,41.70226,-71.430931
5485,MAIN OPP 1383 MAIN,41.700112,-71.522586
5495,WEST SHORE AT BANK OF RI,41.702633,-71.428779
5500,OAKLAND BEACH OPP VICTORY,41.702611,-71.398785
5505,TOLLGATE FS CRAIG,41.702768,-71.4747
5510,WEST SHORE FS MYSTIC,41.702789,-71.427156
5525,POST OPP WINSLOW,41.703473,-71.454346
5530,WEST SHORE FS MODENA,41.702867,-71.427365
5540,WASHINGTON NS CRAWFORD,41.703036,-71.525835
5545,WEST SHORE FS KERRILYN,41.703012,-71.425852
5570,WEST SHORE FS WHITE,41.70325,-71.42484
5580,WEST SHORE NS SUNNY COVE,41.703449,-71.423023
5585,POST NS WINSLOW,41.703425,-71.45416
5595,WEST SHORE FS MOCASSIN,41.703761,-71.42154
5610,TOLLGATE AT 330 TOLLGATE,41.70312,-71.475256
5615,POST OPP CREST,41.704925,-71.453491
5620,HOPE NS SULLIVAN LANE,41.703748,-71.280157
5635,HOPE FS TUPELO,41.704476,-71.280007
5645,TOLLGATE AT 430 TOLLGATE,41.704075,-71.477304
5655,MAIN NS WASHINGTON,41.704546,-71.524196
5660,HOPE NS SOUTH LANE,41.706327,-71.280307
5670,WEST SHORE AT NEWPORT CREAMERY,41.704704,-71.419202
5680,METACOM NS TUPELO,41.705309,-71.265841
5690,WEST SHORE AT DUNKIN DONUTS,41.705048,-71.418987
5695,OAKLAND BEACH AT BISHOP HENDRICKEN,41.705329,-71.398308
5710,OAKLAND BEACH NS STANFIELD,41.705567,-71.398463
5715,TOLLGATE OPP KENT HOSPITAL,41.705063,-71.479111
5720,METACOM FS TUPELO,41.705007,-71.265946
5740,TOLLGATE AT 470 TOLLGATE,41.704925,-71.478663
5750,MAIN OPP 1200 MAIN,41.705896,-71.523498
5760,STRAWBERRY FIELD FS ELMORE,41.70628,-71.418246
5765,ALFRED AT WHARF SEAFOOD,41.706591,-71.417437
5770,POST NS MYRTLE,41.706969,-71.452108
5780,SANDY LANE NS CLORANE,41.706581,-71.415947
5785,TOLLGATE FS HILARY,41.706365,-71.481785
5800,HOPE FS ECHO FARM,41.707064,-71.280164
5805,SANDY LANE OPP TREMONT,41.70729,-71.414096
5810,TOLLGATE OPP HILARY,41.706483,-71.48185
5820,TOLLGATE NS COMMONWEALTH,41.707184,-71.483268
5825,SANDY LANE NS TREMONT,41.707076,-71.414412
5830,STRAWBERRY FIELD OPP TURNER,41.707386,-71.419417
5835,STRAWBERRY FIELD NS LAKE,41.707206,-71.419311
5840,POST OPP VAUGHAN,41.707471,-71.451533
5845,MAIN FS PROVIDENCE ST,41.70783,-71.522455
5865,MAIN AT 1125 MAIN ST (CVS PHARMACY),41.707944,-71.522589
5870,SANDY LANE AT ARMY RESERVE,41.707827,-71.412647
5875,SANDY LANE OPP ARMY RESERVE,41.707764,-71.412629
5880,COMMONWEALTH FS TOLLGATE RD,41.708401,-71.484467
5885,METACOM NS SAN FRANCISCO,41.708382,-71.266637
5890,METACOM NS SAN FRANCISCO,41.708179,-71.266459
5895,HOPE NS ELM FARM,41.709006,-71.280292
5915,POST NS POTTERS,41.708961,-71.450704
5930,COMMONWEALTH AT 400 COMMONWEALTH,41.708271,-71.484494
5935,SANDY LANE NS TRENT,41.709785,-71.406928
5940,SANDY LANE OPP TRENT,41.708941,-71.409619
5950,STRAWBERRY FIELD NS HANOVER,41.709197,-71.422599
5975,SANDY LANE FS CEDAR SWAMP,41.709698,-71.407386
5980,WARWICK OPP STOP&SHOP,41.710077,-71.398393
5985,POST FS CHAPMANS,41.710686,-71.449525
5990,MAIN NS POTTER,41.710708,-71.523058
5995,WARWICK OPP WAGUAGONET,41.707645,-71.398002
6000,MAIN OPP YOUNGS,41.710563,-71.522977
6005,TOLLGATE OPP SENIOR CITY RD,41.710109,-71.492384
6010,MAIN AVE NS GROVELAND,41.710375,-71.440749
6015,MAIN AVE OPP GROVELAND,41.710357,-71.440121
6020,POST OPP HILLARD,41.710285,-71.449579
6025,SANDY LANE OPP CRANE,41.710364,-71.405275
6030,MAIN AVE NS GERTRUDE,41.710531,-71.441963
6035,SANDY LANE FS CRANE,41.710384,-71.405581
6040,STRAWBERRY FIELD NS ENDICOTT,41.710519,-71.425012
6045,HOPE NS MAPLE SHADE,41.709518,-71.280451
6050,HOPE FS ELMWOOD,41.710798,-71.28039
6055,MAIN AVE NS EARL,41.710651,-71.441921
6075,SANDY LANE NS SOCIAL,41.711325,-71.402858
6080,MAIN NS WALKER,41.711997,-71.523363
6095,MAIN AVE NS MORSE,41.711023,-71.444632
6100,MAIN AVE NS GORHAM,41.710862,-71.444294
6105,SANDY LANE OPP SOCIAL,41.710975,-71.403488
6110,TOLLGATE AT 997 TOLLGATE,41.710649,-71.49498
6125,SANDY LANE FS CALL,41.712348,-71.399998
6140,TOLLGATE AT 979 TOLLGATE,41.710697,-71.495083
6145,TOLLGATE AT 1060  TOLLGATE,41.711141,-71.497923
6150,TOLLGATE OPP 1060 TOLLGATE,41.711288,-71.497845
6160,PROVIDENCE FS NEW LONDON,41.711405,-71.502384
6165,STRAWBERRY FIELD OPP INMAN,41.711727,-71.427162
6170,PROVIDENCE AT 329 PROVIDENCE,41.711692,-71.503065
6175,PROVIDENCE OPP NEWELL,41.711854,-71.500104
6180,HOPE OPP ELMWOOD,41.710666,-71.280523
6185,PROVIDENCE OPP TOLLGATE,41.711842,-71.500341
6195,PROVIDENCE AT 320 PROVIDENCE,41.712131,-71.504414
6200,MAIN FS BRAYTON,41.713415,-71.52376
6205,JEFFERSON BLVD NS GILLMORE,41.712329,-71.448791
6210,WARWICK FS SANDY LANE,41.711716,-71.39906
6220,JEFFERSON BLVD OPP GILLMORE,41.7121,-71.44871
6225,WARWICK NS SANDY LANE,41.712104,-71.398828
6235,METACOM FS JAMESON,41.712441,-71.267532
6245,METACOM AT 810 METACOM,41.71244,-71.267313
6255,GREENWOOD COMMUNITY CHURCH,41.712533,-71.450192
6275,PROVIDENCE AT 268 PROVIDENCE,41.713198,-71.507041
6280,PROVIDENCE OPP 322 PROVIDENCE,41.712057,-71.504433
6285,STRAWBERRY FIELD AT 333 STRAWBERRY FIELD,41.712949,-71.429346
6295,COMMONWEALTH - TRUDEAU CENTER,41.712263,-71.484852
6300,STRAWBERRY FIELD FS BURGESS,41.712933,-71.429532
6305,MAIN OPP BRAYTON,41.713604,-71.523863
6310,CHURCH NS WEST SHORE,41.713219,-71.380329
6315,WEST SHORE NS CHURCH,41.713251,-71.379755
6320,CHURCH FS ALPINE,41.713481,-71.380524
6335,CCRI (WARWICK CAMPUS),41.713418,-71.481354
6340,STRAWBERRY FIELD NS CARNEY,41.713774,-71.43112
6345,MAIN NS FATIMA,41.713608,-71.280653
6360,JEFFERSON BLVD FS ECHO,41.713408,-71.448385
6365,PROVIDENCE AT 230 PROVIDENCE,41.713913,-71.50966
6370,JEFFERSON BLVD OPP ECHO,41.71384,-71.448069
6375,PROVIDENCE FS TANGLEWOOD,41.713615,-71.508292
6380,PROVIDENCE AT 229 PROVIDENCE,41.71386,-71.509907
6385,E MAIN FS ELM,41.713795,-71.517833
6390,PROVIDENCE AT 516 PROVIDENCE,41.71419,-71.496245
6405,POST NS GREENE,41.713526,-71.4462
6410,PROVIDENCE OPP 199 PROVIDENCE,41.714047,-71.511547
6415,MAIN FS BAGY WRINKLE COVE,41.713405,-71.280747
6420,PROVIDENCE AT 519 PROVIDENCE,41.713998,-71.496285
6425,PROVIDENCE OPP VFW POST,41.713972,-71.51165
6430,E MAIN OPP CROSS,41.71389,-71.519124
6435,PROVIDENCE NS HAY,41.714564,-71.515226
6440,PROVIDENCE OPP 186 PROVIDENCE,41.714488,-71.515137
6460,PROVIDENCE FS JUNIOR,41.713899,-71.517663
6465,E MAIN NS BRIDGE ST,41.713903,-71.520529
6485,E MAIN AT BRAYTON FOUNDRY,41.714355,-71.52144
6495,WEST SHORE FS DAMON,41.714596,-71.377552
6505,METACOM NS RIDGEWAY,41.714704,-71.267979
6510,METACOM OPP RIDGEWAY,41.714677,-71.267816
6520,WEST SHORE FS TIDEWATER,41.714578,-71.377327
6525,CHURCH NS HOWARD,41.715147,-71.383251
6540,POST OPP BAYWOOD,41.7149,-71.445874
6545,BALD HILL AT 920 BALD HILL,41.713221,-71.488668
6565,E MAIN NS MAIN,41.715206,-71.523159
6575,CHURCH OPP NASH,41.715493,-71.383616
6580,MAIN NS MAPLE,41.715661,-71.523747
6585,PROVIDENCE NS BURNS,41.71569,-71.495049
6610,WEST SHORE OPP ECONOMY,41.7156,-71.375908
6620,BALD HILL OPP 1000 BALD HILL,41.712906,-71.489125
6630,PROVIDENCE AT 567 PROVIDENCE,41.715813,-71.494787
6635,CHURCH OPP AQUARIUS,41.716537,-71.38513
6640,MAIN AT 948 MAIN,41.71606,-71.523508
6645,BALD HILL AT 886 BALD HILL,41.714426,-71.488179
6650,CHURCH NS BEACH,41.716291,-71.384962
6660,METACOM OPP LAUREL,41.717006,-71.268473
6665,METACOM NS LAUREL,41.716756,-71.268238
6670,MAIN FS LOCUST,41.71646,-71.281013
6675,BALD HILL AT DUNKIN DONUTS,41.714127,-71.488542
6680,POST AT 2426 POST,41.716286,-71.444802
6690,MAIN NS SEYMOUR,41.715818,-71.280784
6695,WARWICK FS LINDY,41.717156,-71.40082
6700,PROVIDENCE AT O'DONNELL,41.717198,-71.493542
6705,WEST SHORE NS BUSH,41.716768,-71.375613
6710,WARWICK OPP AMSTERDAM,41.71689,-71.400312
6715,PROVIDENCE NS GAGE,41.717084,-71.493878
6720,BALD HILL AT 790 BALD HILL,41.716532,-71.486945
6725,MAIN OPP 914 MAIN,41.717862,-71.523874
6730,BALD HILL AT 797 BALD HILL,41.716375,-71.487455
6735,MAIN FS CLYDE,41.717726,-71.523731
6740,WEST SHORE FS MORRIS,41.717375,-71.375812
6745,POST AT 2332 POST,41.718531,-71.443416
6750,JEFFERSON BLVD OPP THRIFT STORE,41.717416,-71.447132
6755,JEFFERSON BLVD AT BAKERY OUTLET,41.716901,-71.447028
6760,CHURCH AT 234 CHURCH,41.717228,-71.386385
6765,POST NS ELAINE,41.718221,-71.443808
6770,WARWICK NS GREYLAWN,41.718554,-71.402154
6775,MAIN FS ALMY,41.718257,-71.280932
6780,MAIN NS BRADFORD,41.717994,-71.281076
6785,WARWICK OPP GREYLAWN,41.718528,-71.401908
6790,GREENWICH AVE NS ROME,41.718284,-71.463652
6795,METACOM AT 611 METACOM,41.718418,-71.268787
6800,CHURCH NS NEW BRITAIN,41.718554,-71.388532
6805,METACOM AT 622 METACOM,41.71855,-71.268632
6810,MAIN AT 900 MAIN,41.719088,-71.524759
6815,WEST SHORE AT 1026 WEST SHORE,41.718267,-71.376261
6820,CHURCH NS OVERBROOK,41.718316,-71.388016
6830,BALD HILL AT 733 BALD HILL,41.718389,-71.486082
6845,WEST SHORE OPP STOKES,41.718403,-71.376557
6850,MAIN AT 885 MAIN,41.719594,-71.525521
6855,BALD HILL FS RT 113,41.720455,-71.48338
6860,CHURCH FS KENWOOD,41.719548,-71.391359
6865,CHURCH FS WARWICK,41.719627,-71.402233
6870,WARWICK NS BRENARD,41.719048,-71.40262
6875,CHURCH NS WARWICK,41.719736,-71.402118
6880,PROVIDENCE NS MARKET,41.719401,-71.491642
6885,JEFFERSON BLVD FS WILLIAMSBURG,41.719553,-71.446465
6890,PROVIDENCE AT 690 PROVIDENCE,41.719109,-71.491897
6895,WARWICK AT FRIENDLYS,41.719898,-71.403183
6900,RHODE ISLAND MALL,41.7196,-71.482554
6905,MAIN NS DYER,41.719704,-71.281019
6915,CHURCH AT 642 CHURCH,41.720034,-71.399727
6925,CHURCH OPP KILLEY,41.720272,-71.393944
6930,MAIN NS WAKEFIELD,41.720042,-71.526091
6935,CHURCH OPP OLD HOMESTEAD,41.720443,-71.39544
6945,WEST SHORE NS WINTER,41.720204,-71.378002
6950,MAIN OPP COOMER,41.718919,-71.281122
6955,CHURCH FS BUGBEE,41.720488,-71.397144
6960,GREENWICH AVE FS NAPLES,41.719972,-71.464537
6965,CHURCH OPP BUGBEE,41.720526,-71.397473
6970,METACOM AT 598 METACOM,41.720395,-71.268981
6980,METACOM OPP PATTERSON,41.720752,-71.269229
6985,MAIN AT 800 MAIN,41.720787,-71.527946
6995,POST AT 2248 POST,41.720607,-71.442125
7000,MAIN OPP 780 MAIN,41.720934,-71.529899
7005,POST OPP 2222 POST,41.721547,-71.441825
7010,WEST SHORE FS TROY,41.721168,-71.378498
7015,MAIN NS BRIDGE,41.721494,-71.281292
7020,WARWICK NS YACATAN,41.721325,-71.404078
7025,JEFFERSON BLVD OPP 1000 JEFFERSON BLVD,41.721344,-71.445834
7035,WARWICK NS VERNON,41.721269,-71.403808
7045,HIGHLAND NS PARKER,41.72135,-71.52872
7050,HIGHLAND FS PLEASANT (PHENIX HOTEL),41.721637,-71.532199
7055,PROVIDENCE NS RIVER,41.721262,-71.490985
7060,PROVIDENCE AT 798 PROVIDENCE,41.722621,-71.491214
7065,MAIN FS VERNON,41.721949,-71.281162
7070,GREENWICH AT 555 GREENWICH,41.721011,-71.465792
7075,WARWICK MALL OPP THEATRES,41.721933,-71.474838
7095,WEST SHORE OPP WOODBURY,41.722467,-71.380289
7115,METACOM OPP BEE JAY,41.723149,-71.26955
7120,LAMBERT LIND FS SHALOM,41.723331,-71.468532
7125,METACOM NS BEE JAY,41.723326,-71.269754
7135,WARWICK NS STANMORE,41.723529,-71.404694
7145,WEST SHORE AT 760 WEST SHORE,41.723778,-71.382381
7165,GREENWICH AT LUTHERAN CHURCH,41.723667,-71.469428
7170,POST AT RADISSON,41.724855,-71.439835
7180,PROVIDENCE NS WAKEFIELD,41.723743,-71.491273
7195,MAIN FS HAILE,41.723139,-71.281416
7200,PROVIDENCE FS WAKEFIELD,41.724163,-71.491402
7205,WARWICK OPP EDGEHILL,41.724753,-71.404864
7215,WEST SHORE AT 635 WEST SHORE,41.726062,-71.386332
7225,GREENWICH OPP GREENWICH APTS,41.725103,-71.471803
7230,LAMBERT LIND NS GREENWICH VILLAGE APTS,41.725114,-71.471628
7235,JEFFERSON BLVD NS BROWNELL,41.72485,-71.444538
7245,WEST SHORE NS ALLARD,41.723957,-71.382405
7250,WARWICK OPP ROSEMERE,41.725769,-71.405353
7265,TF GREEN AIRPORT (ARRIVALS),41.725802,-71.436997
7270,METACOM NS LIBBY,41.725045,-71.269934
7280,WEST SHORE FS ROYAL,41.724921,-71.383911
7285,MAIN FS FRANKLIN,41.725731,-71.281563
7300,WARREN PARK N RIDE,41.725695,-71.280706
7305,WEST SHORE OPP CAMBRIDGE,41.727065,-71.388244
7315,POST AT SKY BRIDGE,41.726764,-71.438901
7325,PROVIDENCE OPP OAKLAND,41.726101,-71.491104
7330,PROVIDENCE OPP PONTIAC,41.726094,-71.49125
7340,WEST SHORE NS CAMBRIDGE,41.726996,-71.387868
7345,WARWICK OPP LYNDALE,41.727463,-71.405829
7350,WEST SHORE NS LINBROOK,41.728161,-71.390676
7355,LAMBERT LIND AT MACYS,41.727227,-71.475554
7360,WEST NATICK OPP FESSENDEN,41.727505,-71.478501
7365,JEFFERSON BLVD OPP 931 JEFFERSON BLVD,41.720883,-71.445794
7370,PROVIDENCE OPP ALDEN,41.727632,-71.489796
7375,WARWICK BETWEEN DAYTON & LYNDALE,41.727656,-71.405694
7380,BALD HILL AT WARWICK COMMONS,41.725782,-71.480408
7385,JEFFERSON BLVD AT LEVITON MFG,41.727256,-71.443624
7390,WEST NATICK NS FESSENDEN,41.727678,-71.477831
7395,MAIN NS GREENE,41.727733,-71.281861
7410,LAMBERT LIND FS MESSER,41.727932,-71.475982
7415,LAMBERT LIND OPP MESSER,41.727897,-71.476358
7420,WEST SHORE AT 515 WEST SHORE,41.727957,-71.389916
7430,JEFFERSON BLVD FS THURBER,41.728409,-71.443196
7435,MAIN NS WASHINGTON,41.728577,-71.28223
7440,LAMBERT LIND AT D'ANGELO'S,41.73007,-71.476797
7445,WEST SHORE AT 456 WEST SHORE,41.728531,-71.391317
7450,WARWICK FS DIXIE,41.729318,-71.406021
7465,MAIN NS JOYCE,41.729294,-71.282253
7490,PROVIDENCE OPP MARYLAND,41.729538,-71.488014
7495,LAMBERT LIND NS GREBLE,41.729408,-71.476974
7500,PROVIDENCE NS MARYLAND,41.729721,-71.487978
7505,WEST SHORE FS CIRCUIT,41.729879,-71.394684
7520,MAIN NS CHILD,41.73032,-71.282474
7525,WARWICK OPP GLENDALE,41.730023,-71.406395
7555,WEST SHORE AT 314 WEST SHORE,41.730567,-71.396271
7560,POST NS AIRPORT RD (opposite Earlham Way),41.731449,-71.436705
7570,JEFFERSON BLVD OPP 639 JEFFERSON BLVD,41.73053,-71.442304
7580,WEST SHORE FS GLENWOOD,41.730993,-71.397531
7585,WARWICK FS MAGNOLIA,41.731342,-71.406451
7595,MAIN NS MILLER,41.731164,-71.282789
7600,JEFFERSON BLVD NS QUIMBY,41.731359,-71.442128
7605,WEST SHORE NS TWIN OAK,41.731424,-71.398145
7610,NEW LONDON NS SOUTHVIEW,41.732218,-71.485713
7620,OAKLAWN OPP GREENWICH,41.731764,-71.477057
7625,LAMBERT LIND NS GREENWICH,41.731375,-71.476797
7640,WARWICK AT 1600 WARWICK,41.732719,-71.406741
7645,WEST SHORE AT 199 WEST SHORE,41.732033,-71.399931
7650,MAIN FS WOOD,41.732349,-71.282959
7660,POST BETWEEN GUILFORD & AIRPORT RD,41.732384,-71.436698
7665,MAIN NS LIBERTY,41.732407,-71.283046
7670,WEST SHORE OPP DELWOOD,41.732495,-71.400523
7680,JEFFERSON BLVD OPP 555 JEFFERSON BLVD,41.732582,-71.441581
7685,NEW LONDON OPP SOUTHVIEW,41.731984,-71.48571
7690,JEFFERSON BLVD AT 555 JEFFERSON BLVD,41.732704,-71.441609
7695,NEW LONDON AT 1400 NEW LONDON,41.732899,-71.4848
7710,OAKLAWN FS BATEMAN,41.732949,-71.477142
7715,OAKLAWN OPP BATEMAN,41.732892,-71.477327
7725,WARWICK MIDBLOCK AIRPORT RD,41.735061,-71.407737
7735,WEST SHORE AT 109 WEST SHORE,41.733464,-71.403867
7745,WEST SHORE AT 50 WEST SHORE,41.733627,-71.404553
7750,WEST SHORE AT 27 WEST SHORE,41.733466,-71.405847
7755,NEW LONDON OPP WARFIELD,41.73453,-71.483112
7760,MAYFIELD FS OAKLAWN,41.73401,-71.476916
7765,WARWICK AT 1543 WARWICK,41.734492,-71.407268
7770,MAYFIELD NS OAKLAWN,41.734141,-71.476787
7775,NEW LONDON NS WARFIELD,41.734679,-71.48297
7785,MAIN OPP WARREN,41.73453,-71.283849
7795,JEFFERSON BLVD OPP CITIZENS BANK,41.734326,-71.440943
7800,MAYFIELD AT WOODHAVEN APTS,41.734379,-71.472391
7805,OAKLAWN NS OAK HILL DR (DEL'S LEMONADE),41.735007,-71.477651
7810,MAIN FS WARREN,41.734464,-71.283941
7825,MAYFIELD OPP LAURA,41.734487,-71.470499
7841,EAST OPP BLAIS,41.735206,-71.468006
7845,EAST OPP MAYFIELD,41.735065,-71.468402
7850,POST AT BARDEN,41.735357,-71.435014
7855,OAKLAWN AT 1279 OAKLAWN AVE (WALGREENS PHARMACY),41.734557,-71.477747
7860,JEFFERSON BLVD AT 443 JEFFERSON BLVD,41.735387,-71.440718
7865,MAIN FS WATER,41.735412,-71.285126
7870,MAIN OPP WATER,41.735433,-71.285058
7880,POST OPP BARDEN,41.73552,-71.435261
7885,COUNTY AT 132 COUNTY RD,41.736085,-71.301674
7890,COUNTY FS JOYCE,41.736259,-71.30093
7900,EAST AT BICKNELL,41.73634,-71.466604
7905,COUNTY OPP POLICE COVE PARK N RIDE,41.736436,-71.298384
7910,MAIN ST AT SAMSONITE,41.736627,-71.28672
7915,WARWICK NS SQUANTUM,41.736385,-71.407941
7920,WARWICK FS SQUANTUM,41.736677,-71.408151
7925,JEFFERSON BLVD FS SERVICE AVE,41.736482,-71.440274
7930,COUNTY NS BOSWORTH,41.736692,-71.303819
7945,COUNTY NS NEW MEADOW,41.737019,-71.293358
7950,JEFFERSON BLVD AT 380 JEFFERSON BLVD,41.73692,-71.439999
7955,MAIN NS CRESCENT,41.736848,-71.28691
7960,COUNTY AT 66 COUNTY RD,41.736931,-71.293348
7965,EAST AT ZENITH,41.73677,-71.465851
7980,OAKLAWN AT 1210 OAKLAWN AVE (HARUKI RESTAURANT),41.736759,-71.477866
7985,COUNTY AT 15 COUNTY RD,41.737221,-71.290969
7990,COUNTY FS SOWAMS,41.737268,-71.290972
7995,COUNTY OPP BARRINGTON SHOPPING CTR,41.737508,-71.304154
8010,COUNTY AT 230 COUNTY RD,41.738247,-71.305868
8020,EAST NS FOSTER,41.739264,-71.462593
8025,JEFFERSON BLVD OPP BAY STATE AVE,41.738203,-71.439529
8030,COUNTY AT 230 COUNTY RD,41.738388,-71.305735
8035,JEFFERSON BLVD FS BAY STATE AVE,41.738297,-71.439628
8040,WARWICK FS MANOR,41.73857,-71.408084
8045,POST NS LINCOLN,41.738468,-71.433326
8050,POST FS LINCOLN,41.73851,-71.43356
8060,OAKLAWN AT OLD SPRING TURNAROUND,41.739019,-71.478586
8065,EAST FS FOREST,41.739063,-71.462698
8070,WARWICK OPP MANOR,41.738603,-71.408267
8075,OAKLAWN OPP OLD SPRING TURNAROUND,41.739119,-71.478446
8085,JEFFERSON BLVD OPP 303 JEFFERSON BLVD,41.73923,-71.439126
8095,COUNTY NS MAPLE,41.739947,-71.308163
8105,JEFFERSON BLVD NS VERMONT,41.73985,-71.439109
8125,HOWARD NS PONTIAC,41.740836,-71.461082
8135,JEFFERSON BLVD AT 222 JEFFERSON BLVD,41.740972,-71.438469
8140,WARWICK AT 1309 WARWICK,41.74084,-71.40808
8145,JEFFERSON BLVD AT 245 JEFFERSON BLVD,41.741113,-71.438565
8150,WARWICK NS NAMQUID,41.741137,-71.407827
8160,COUNTY AT 308 COUNTY RD,41.741874,-71.310257
8175,COUNTY OPP BODY NATURAL FITNESS,41.74189,-71.309984
8185,OAKLAWN FS WESTBROOK,41.741462,-71.479138
8200,COUNTY OPP HILLTOP,41.742842,-71.312185
8205,COUNTY OPP 361 COUNTY RD,41.744088,-71.314383
8210,OAKLAWN OPP WEINORAMA,41.743513,-71.479285
8215,HOWARD NS WEST,41.743173,-71.463464
8225,JEFFERSON BLVD OPP LINCOLN,41.743314,-71.437656
8230,JEFFERSON BLVD FS LINCOLN,41.742723,-71.437983
8235,OAKLAWN AT WEINORAMA,41.743516,-71.479379
8245,WARWICK FS MIANONOMO,41.743716,-71.407144
8250,HOWARD NS REGAN,41.744719,-71.464708
8255,PONTIAC OPP KENNEY,41.743764,-71.456681
8265,PONTIAC NS KENNEY,41.74358,-71.456612
8270,WARWICK NS SCRANTON,41.744087,-71.407211
8275,OAKLAWN OPP SCENIC,41.744942,-71.479324
8280,POST NS ETHAN,41.744552,-71.428405
8285,OAKLAWN OPP CITIZENS BANK,41.744962,-71.479131
8290,POST BETWEEN ELM & CHESTNUT,41.744846,-71.428289
8295,WARWICK OPP 1106 WARWICK,41.745766,-71.406247
8300,NARRAGANSETT PKWAY NS WARWICK,41.745201,-71.406061
8305,NARRAGANSETT PKWAY NS STODDARD,41.745178,-71.405759
8330,NARRAGANSETT PKWAY FS CREAD,41.745468,-71.403912
8345,JEFFERSON BLVD AT 100 JEFFERSON BLVD,41.745755,-71.436699
8355,NARRAGANSETT PKWAY OPP THOR,41.745874,-71.401843
8365,JEFFERSON BLVD OPP 100 JEFFERSON BLVD,41.745985,-71.436824
8370,NARRAGANSETT PKWAY NS KENDALL,41.746093,-71.399959
8375,NARRAGANSETT PKWAY OPP KENDELL,41.74628,-71.399377
8380,POST BETWEEN WELFARE & MAJESTIC,41.747596,-71.424225
8385,COUNTY FS LINCOLN,41.746637,-71.316552
8390,POST BETWEEN PETTACONSETT & NORWOOD,41.746699,-71.42602
8395,PONTIAC FS SLATER,41.746956,-71.453756
8400,NARRAGANSETT PKWAY NS ELKS,41.746504,-71.397355
8405,NARRAGANSETT PKWAY OPP ELKS LANE,41.746632,-71.397125
8410,OAKLAWN NS BRAYTON,41.746699,-71.478865
8415,HOWARD NS CHERRYDALE,41.746653,-71.466493
8420,HOWARD OPP CHERRYDALE,41.746576,-71.466552
8425,COUNTY NS LINCOLN,41.746469,-71.316588
8445,NARRAGANSETT PKWAY NS SPRING GREEN,41.746818,-71.395409
8455,NEW LONDON FS HOWARD,41.747932,-71.468295
8460,OAKLAWN NS WILBUR,41.747205,-71.478947
8465,NARRAGANSETT PKWAY NS SPRING GREEN,41.747017,-71.394657
8475,PONTIAC AT CNG PUMP STATION,41.747365,-71.453681
8485,NEW LONDON NS GARDEN HILLS PKWAY,41.747883,-71.46872
8510,TRAFFIC TRIBUNAL,41.748219,-71.467083
8520,BARRINGTON PARK N RIDE (WHITE CHURCH),41.747975,-71.31803
8530,BARRINGTON PARK N RIDE (WHITE CHURCH),41.748065,-71.317928
8545,NARRAGANSETT PKWAY NS HOWIE,41.74857,-71.391115
8550,NARRAGANSETT PKWAY FS HOWIE,41.74873,-71.391009
8555,POST NS HARRINGTON,41.748343,-71.423346
8565,WARWICK NS N. COUNTRY CLUB,41.748264,-71.404619
8570,WARWICK AT 1015 WARWICK,41.748172,-71.404853
8575,OAKLAWN NS WEAVER,41.748647,-71.478429
8585,NARRAGANSETT PKWAY FS PARKSIDE,41.74874,-71.387351
8590,COUNTY NS FEDERAL,41.74936,-71.319331
8600,NARRAGANSETT PKWAY FS N ALVIRA,41.748823,-71.388053
8610,JEFFERSON BLVD NS MAPLE,41.748899,-71.43576
8615,ELMWOOD NS POST,41.749567,-71.422972
8630,ELMWOOD FS POST,41.74951,-71.42277
8635,JEFFERSON BLVD FS SARGENT,41.749018,-71.435583
8640,NARRAGANSETT PKWAY OPP CARRIE BROWN,41.748791,-71.385099
8645,NARRAGANSETT PKWAY NS CARRIE BROWN,41.748869,-71.384603
8665,POST OPP ROSEWOOD,41.749695,-71.421014
8670,NEW LONDON AT NATIONAL GUARD,41.749307,-71.46739
8680,WARWICK OPP URBAN,41.750778,-71.404095
8695,NARRAGANSETT PKWAY NS COUNTRY CLUB,41.75011,-71.383476
8700,OAKLAWN NS MILES,41.750455,-71.477815
8705,NARRAGANSETT PKWAY NS COUNTRY CLUB,41.750534,-71.383664
8710,JEFFERSON BLVD NS CHESTNUT,41.75085,-71.435047
8720,OAKLAWN OPP MILES,41.750739,-71.47786
8745,JEFFERSON BLVD FS CHESTNUT,41.750595,-71.434989
8750,COUNTY AT 509 COUNTY RD,41.751983,-71.321692
8765,POST AT 901 POST RD,41.751686,-71.417281
8770,JEFFERSON BLVD NS CYPRESS,41.752742,-71.435568
8775,NARRAGANSETT PKWAY OPP GILOOLY,41.752268,-71.383611
8780,PONTIAC NS SOCKANOSSET CROSS,41.751645,-71.451527
8785,NARRAGANSETT PKWAY NS GILLOOLY,41.752466,-71.383744
8805,POST FS FAIRFAX,41.752245,-71.41634
8810,OAKLAWN FS GARDEN HILLS,41.752349,-71.477277
8815,ELMWOOD NS SIXTH,41.751899,-71.423164
8820,JEFFERSON BLVD NS JEFFERSON PARK RD,41.752645,-71.435241
8830,OAKLAWN AT 741 OAKLAWN,41.75282,-71.477299
8835,COUNTY FS MANNING,41.752442,-71.324051
8840,PONTIAC OPP 1150 PONTIAC,41.753023,-71.450327
8845,POST FS RELPH,41.75306,-71.415349
8850,ELMWOOD NS FIFTH,41.753867,-71.423686
8870,PONTIAC FS PETTACONSETT,41.753586,-71.449001
8880,OAKLAWN NS BLOSSOM,41.754045,-71.476735
8895,PONTIAC OPP PETTACONSETT,41.753719,-71.449005
8900,NARRAGANSETT PKWAY OPP BENTLEY,41.754092,-71.385485
8905,NARRAGANSETT PKWAY NS BENTLEY,41.753943,-71.385454
8915,POST NS WALMART ENTRANCE,41.753601,-71.414324
8925,POST FS PALM,41.754462,-71.413367
8950,WARWICK NS WASHINGTON,41.754677,-71.404236
8955,POST OPP CHAMBLY,41.755079,-71.412218
8980,NARRAGANSETT PKWAY FS NAUSHON,41.755464,-71.387961
8985,NARR PKWAY FS 400 NARRAGANSETT PKWAY,41.755303,-71.387681
9015,WARWICK NS ATLANTIC,41.75598,-71.404535
9020,POST FS SPOFFORD,41.755458,-71.41187
9025,ELMWOOD MIDBLOCK 1884 ELMWOOD,41.756267,-71.424124
9040,OAKLAWN AT655 OAKLAWN,41.755696,-71.476041
9050,OAKLAWN AT 630 OAKLAWN,41.756101,-71.475669
9065,NARRAGANSETT PKWAY NS CONONCHET,41.756822,-71.388744
9070,NARRAGANSETT PKWAY FS LONGWOOD,41.75675,-71.388619
9075,ELMWOOD N S 2ND,41.75972,-71.424644
9090,MIDWAY FS SOCKANOSSETT,41.757339,-71.457899
9095,WAMPANOAG AT EAST BAY CTR,41.754475,-71.326199
9100,ELMWOOD NS THIRD,41.756897,-71.424035
9105,POST OPP TENNYSON,41.756977,-71.409506
9110,POST NS TENNYSON,41.757155,-71.409403
9125,PONTIAC AT 988 PONTIAC AVE,41.757572,-71.445425
9130,PONTIAC AT 995 PONTIAC,41.75764,-71.445458
9145,OAKLAWN FS FREEHOLD,41.758023,-71.474514
9150,CRESCENT VIEW OPP PROVIDENCE,41.758095,-71.358289
9155,NARRAGANSETT PKWAY FS MANCHESTER,41.758541,-71.389176
9165,MIDWAY OPP SOCKANOSSETT,41.756967,-71.458543
9170,MIDWAY BEHIND OFFICE MAX,41.757945,-71.456923
9175,CRESCENT VIEW NS PROVIDENCE,41.758254,-71.357948
9180,OAKLAWN NS SHERMAN,41.758341,-71.474523
9190,CRESCENT VIEW NS CAROUSEL,41.758365,-71.3566
9195,BULLOCKS POINT FS CRESCENT VIEW,41.758468,-71.359866
9225,POST FS HOLMES,41.758677,-71.407304
9240,CRESCENT VIEW FS BEACON PARK,41.758632,-71.35543
9245,ELMWOOD NS SECOND,41.758798,-71.42437
9255,BULLOCKS POINT FS BEACON,41.758776,-71.360118
9275,PONTIAC NS CAPUANO,41.758777,-71.44443
9285,CRESCENT VIEW NS CLAIRE,41.759568,-71.351402
9300,CRESCENT VIEW BETWEEN PECK & PLANET,41.75945,-71.347859
9315,OAKLAWN NS FERNBROOK,41.759745,-71.47401
9320,CRESCENT VIEW AT ALDEN,41.75971,-71.348909
9325,OAKLAWN FS FERNBROOK,41.759978,-71.473771
9330,WARWICK NS POST,41.760089,-71.404624
9335,NARRAGANSETT PKWAY NS BAYSIDE,41.760364,-71.389483
9340,POST FS FROST,41.759978,-71.405378
9345,WILLETT AVE AT SHAW S MARKET,41.759567,-71.343641
9350,PONTIAC NS GARDEN CITY,41.760252,-71.442922
9355,WARWICK AT 557 WARWICK,41.760744,-71.404868
9360,WARWICK OPP SCOTT,41.761041,-71.404671
9365,BULLOCKS POINT AT OLDHAM ELEMENTARY SCHOOL,41.760741,-71.360235
9370,WAMPANOAG OPP PRIMROSE HILL,41.760222,-71.323314
9380,BULLOCKS POINT OPP SUNSET,41.759975,-71.360271
9385,WAMPANOAG FS PRIMROSE HILL,41.760193,-71.323947
9390,ELMWOOD FS 1ST,41.761009,-71.424955
9400,HILLSIDE FS CHIPOTLE GRILL,41.761606,-71.458729
9410,MIDWAY FS CYPRESS DR,41.76072,-71.456737
9415,NARRAGANSETT PKWAY FS SPRING GARDEN,41.761545,-71.389585
9420,OAKLAWN NS MERIT,41.761128,-71.473667
9440,ELMWOOD NS FIRST,41.761008,-71.424754
9465,OAKLAWN NS WILLISTON,41.761491,-71.473851
9475,HILLSIDE AT JOSEPH A BANKS,41.762062,-71.457992
9480,BULLOCKS POINT NS BATES,41.7618,-71.360583
9495,NARRAGANSETT PKWAY FS EAST VIEW,41.762532,-71.389821
9515,ELMWOOD FS WELLINGTON,41.762387,-71.424996
9535,ELMWOOD NS WELLINGTON,41.762368,-71.42518
9540,PONTIAC OPP HERSEY,41.762712,-71.442412
9560,PONTIAC FS EUSTON,41.763181,-71.44193
9570,WARWICK AT 468 WARWICK,41.763379,-71.404837
9585,OAKLAWN OPP 435 OAKLAWN,41.762917,-71.473729
9590,OAKLAWN AT 435 OAKLAWN,41.762949,-71.473786
9606,HILLSIDE OPP CITIZENS BANK,41.764559,-71.45841
9615,BULLOCKS POINT NS SHERMAN,41.763351,-71.360652
9625,WAMPANOAG AT POLE 23,41.761503,-71.321775
9630,BULLOCKS POINT NS SHERMAN,41.763579,-71.360859
9640,WARWICK FS QUINTON,41.764529,-71.404907
9650,WARWICK FS LAURA,41.764266,-71.405113
9680,ELMWOOD NS 3RD,41.764814,-71.425574
9695,ELMWOOD BETWEEN 2ND & 3RD,41.764837,-71.425423
9705,BULLOCKS POINT NS RIVER,41.76518,-71.361069
9715,WAMPANOAG NS PINE TOP,41.764594,-71.321269
9720,WAMPANOAG AT POLE 35,41.76482,-71.320995
9755,BROAD FS TUCKER,41.765972,-71.390992
9765,OAKLAWN AT 330 OAKLAWN,41.766002,-71.472096
9770,RESERVOIR NS GARDEN CITY DR,41.766139,-71.458405
9785,PONTIAC OPP KEITH,41.766565,-71.440423
9800,OAKLAWN NS DEAN,41.766859,-71.47176
9805,ELMWOOD OPP BEDSON,41.76663,-71.425
9815,Oaklawn NS Tupelo Hill,41.767319,-71.471507
9820,WARWICK NS SHOLES WAY,41.766583,-71.405216
9830,WARWICK OPP WOBURN,41.76731,-71.405103
9835,RESERVOIR FS WOODBRIDGE (CHELO'S),41.766702,-71.457859
9850,BULLOCKS POINT AT 396 BULLOCKS POINT,41.767999,-71.361148
9855,ELMWOOD OPP CARMAN,41.76774,-71.424802
9865,BROAD FS RHODES,41.767874,-71.391888
9870,BULLOCKS POINT NS NORTH,41.767695,-71.361189
9875,BROAD FS CIRCUIT,41.768027,-71.391892
9880,WARWICK FS DARTMOOR,41.768675,-71.405144
9895,ELMWOOD BETWEEN CARMAN &  SHARON,41.768171,-71.424512
9900,PONTIAC NS ROCKLAND,41.76838,-71.439197
9905,RESERVOIR AT 1200 RESERVOIR,41.768399,-71.455966
9910,RESERVOIR FS COULTERS,41.768368,-71.456161
9955,RESERVOIR NS RANGELY,41.769468,-71.455112
9960,BULLOCKS POINT NS LINCOLN,41.770921,-71.361589
9970,OAKLAWN FS RALLS,41.769993,-71.470379
9980,WARWICK AT STOP&SHOP,41.769615,-71.40541
9990,PONTIAC FS FOREST,41.769384,-71.438628
9995,RESERVOIR OPP MCDONALDS,41.771809,-71.452731
10005,OAKLAWN NS OAKLAWN MANOR DR,41.770389,-71.470381
10030,ELMWOOD OPP JOB LOT,41.770958,-71.423505
10045,WARWICK AT 222 WARWICK,41.77115,-71.405261
10055,ELMWOOD MIDBLOCK PRICERITE,41.771058,-71.423531
10075,BROAD NS BERWICK,41.771177,-71.394366
10085,WAMPANOAG OPP ARGYLE,41.77183,-71.324882
10105,BROAD OPP GLEN,41.772294,-71.39581
10120,RESERVOIR NS BRIDGETON,41.773259,-71.451308
10145,BROAD NS ROSEWOOD,41.772516,-71.395991
10155,PONTIAC FS COLONIAL,41.771694,-71.436972
10190,PONTIAC BETWEEN HODSELL & COLONIAL,41.772174,-71.436888
10215,BULLOCKS POINT FS WASHINGTON,41.772703,-71.362886
10220,OAKLAWN NS WOODSTOCK,41.772876,-71.469073
10230,WAMPANOAG AT 1689 WAMPANOAG,41.766917,-71.322601
10240,WARWICK FS 174 WARWICK AVE,41.772651,-71.404296
10250,OAKLAWN AT 101 OAKLAWN,41.77294,-71.469168
10260,WARWICK NS PARK,41.773554,-71.403845
10300,WAMPANOAG AT 1472 WAMPANOAG,41.77426,-71.326417
10310,RESERVOIR AT MCDONALDS,41.771824,-71.452812
10315,ELMWOOD OPP OSSCO BOLT N SCREW,41.773009,-71.422757
10320,WAMPANOAG FS PRESIDENT,41.772461,-71.325534
10335,WARWICK AT 118 WARWICK,41.774248,-71.403046
10345,ELMWOOD FS FENNER,41.773656,-71.422585
10360,PONTIAC FS WATERMAN,41.77404,-71.437338
10370,OAKLAWN OPP ROYALE APTS,41.774543,-71.468484
10380,PONTIAC AT CITGO GAS,41.774304,-71.43724
10390,BROAD FS SHAW,41.774878,-71.398444
10395,BROAD FS MOORLAND,41.77399,-71.397891
10405,RESERVOIR NS NOWELL,41.774767,-71.449806
10415,RESERVOIR AT 1001 RESERVOIR,41.774401,-71.450366
10440,BROAD AT LIBRARY ENTRANCE,41.776124,-71.399418
10455,WARWICK FS VILLA,41.775662,-71.40198
10460,WARWICK FS VILLA,41.775538,-71.4023
10465,OAKLAWN AT 55 OAKLAWN,41.775349,-71.468533
10470,RESERVOIR NS VIKING,41.775656,-71.44903
10475,RESERVOIR AT HEMALIN,41.776263,-71.448014
10525,ELMWOOD FS PARK,41.775981,-71.421745
10530,RESERVOIR NS LOCKMERE,41.776643,-71.447648
10540,ELMWOOD NS HATHAWAY,41.776593,-71.421381
10565,ROLFE FS AUBURN,41.7771,-71.4364
10570,WAMPANOAG AT 1375 WAMPANOAG,41.775831,-71.328304
10585,WAMPANOAG NS MOHAWK,41.776974,-71.328889
10620,ELMWOOD NS SPOONER,41.77819,-71.421015
10630,WARWICK NS BARTLETT,41.777483,-71.40078
10640,RESERVOIR NS AUBURN,41.777784,-71.445905
10660,ROLFE NS PARK AVE,41.778294,-71.435852
10665,WARWICK NS BARTLETT,41.777419,-71.400615
10685,NORWOOD FS BROAD,41.778068,-71.399879
10690,NORWOOD NS BROAD,41.778233,-71.399938
10695,RESERVOIR NS RIVERFARM,41.778049,-71.445688
10700,BROAD FS NORWOOD,41.77822,-71.400369
10735,CRANSTON OPP UXBRIDGE,41.778666,-71.466972
10740,ROLFE FS PONTIAC,41.778477,-71.436012
10750,CRANSTON NS UXBRIDGE,41.778337,-71.467164
10755,NORWOOD NS PAWTUXET,41.778719,-71.396304
10765,NORWOOD FS PAWTUXET,41.778881,-71.396365
10770,PONTIAC NS PARK,41.779282,-71.435361
10780,PONTIAC FS PARK,41.779214,-71.43527
10786,BULLOCKS POINT AT STONEGATE CONDOMINIUMS,41.777732,-71.363255
10790,NORWOOD AT 90 NORWOOD,41.779127,-71.394174
10810,ELMWOOD FS SAWYER,41.778997,-71.420499
10815,BROAD FS WHEELER,41.780539,-71.400849
10830,RESERVOIR NS CALAMAN,41.779834,-71.443218
10840,WAMPANOAG FS FORBES SQUARE,41.779631,-71.333061
10845,WAMPANOAG AT WHJJ TRANSMITTER,41.780064,-71.333227
10850,RESERVOIR NS BLAISDELL,41.779722,-71.443198
10875,CRANSTON AT 1790 CRANSTON,41.780466,-71.465558
10880,CRANSTON NS VERVENNA,41.780305,-71.465711
10885,NARRAGANSETT BLVD NS GRAND,41.780595,-71.393323
10890,NARRAGANSETT BLVD FS GRAND,41.781004,-71.393224
10900,BROAD NS WHEELER,41.780383,-71.400749
10910,ELMWOODNS DIXON,41.779811,-71.420329
10920,PAWTUCKET AT BANK OF AMERICA,41.7809,-71.363188
10925,RESERVOIR FS LEYDEN,41.781008,-71.441687
10930,ELMWOOD FS MCKINLEY,41.781444,-71.419596
10935,RESERVOIR NS NORFOLK,41.780884,-71.441624
10940,PONTIAC OPP MAURAN,41.781261,-71.431801
10950,PONTIAC NS BECKWITH,41.780955,-71.432553
10955,PAWTUCKET NS INDUSTRIAL CT,41.781871,-71.363474
10975,RESERVOIR NS HIGH SCHOOL AVE,41.781909,-71.440159
10985,ELMWOOD FS WHITNEY,41.781914,-71.419648
10990,CRANSTON OPP 1755 CRANSTON,41.782621,-71.464849
11005,RESERVOIR NS LAMBERT,41.782551,-71.439453
11015,CRANSTON NS PARK,41.782962,-71.464866
11022,BROAD NS ARMINGTON,41.782913,-71.401083
11030,PAWTUCKET AT CONTRACTORS SUPPLY,41.7832,-71.363446
11035,CRANSTON FS PARK,41.783535,-71.464606
11040,RESERVOIR NS LEGION WAY,41.783257,-71.438533
11045,NARRAGANSETT BLVD NS ARMINGTON,41.783425,-71.39426
11060,NARRAGANSETT BLVD NS NARRAGANSETT,41.783962,-71.394186
11065,RESERVOIR NS BECKWITH,41.784189,-71.43697
11070,RESERVOIR NS BURNSIDE,41.783931,-71.43755
11075,ELMWOOD OPP CARLISLE,41.784095,-71.418774
11080,ELMWOOD NS CARLISLE,41.784114,-71.418934
11085,PONTIAC OPP BRANDON,41.784438,-71.43119
11095,CRANSTON NS AMERICA,41.784454,-71.464312
11100,BROAD OPP ARMINGTON,41.783106,-71.401188
11110,PAWTUCKET AVE OPP 3348 PAWTUCKET,41.782986,-71.363563
11115,CRANSTON NS KNIGHT,41.784433,-71.464431
11135,DYER FS PARK,41.784509,-71.457036
11150,RESERVOIR NS WILLIS,41.784861,-71.436273
11155,PONTIAC FS BRANDON,41.784589,-71.43109
11170,RESERVOIR FS PRESTON,41.785147,-71.435549
11185,DYER FS POCASSET VILLAGE,41.784574,-71.457126
11195,AMFLEX NS COMSTOCK,41.785283,-71.51558
11210,NARRAGANSETT BLVD FS HARBORSIDE BLVD,41.785919,-71.394861
11220,PAWTUCKET FS WHEELER,41.786067,-71.363887
11225,RESERVOIR NS CARLETON,41.78565,-71.435146
11230,BROAD FS MONTGOMERY,41.785574,-71.401616
11240,BROAD FS MONTGOMERY,41.786141,-71.401675
11250,ELMWOOD AT ROGER WILLIAMS PARK,41.785939,-71.41963
11255,ELMWOOD AT ROGER WILLIAMS PARK ENTRANCE,41.78641,-71.419669
11260,CRANSTON NS MASSACHUSETTS,41.78606,-71.46389
11265,SAILOR WAY NS AMFLEX,41.786386,-71.509791
11270,CRANSTON NS MATTHEWSON,41.786423,-71.463868
11275,NARRAGANSETT BLVD FS MONTGOMERY,41.78604,-71.395084
11285,PAWTUCKET OPP VILLAGE GREEN,41.786644,-71.364138
11290,DYER AT 870 DYER,41.787501,-71.455994
11295,DYER AT 881 DYER,41.786545,-71.456034
11310,PONTIAC FS RUTHERGLEN,41.787531,-71.431435
11330,PONTIAC NS RICHFIELD,41.78614,-71.431645
11335,EDDY NS MORTON,41.78957,-71.403042
11340,WAMPANOAG OPP 600 WAMPANOAG,41.790814,-71.336598
11350,EDDY NS VERMONT,41.787739,-71.402504
11355,NARRAGANSETT BLVD NS WASHINGTON,41.787848,-71.395527
11360,WAMPANOAG AT UTILITY POLE 87 1/2,41.786215,-71.333351
11375,DYER AT 830 DYER,41.789009,-71.4567
11385,CRANSTON NS BATCHELLOR,41.788113,-71.463237
11395,CRANSTON OPP BATCHELLOR,41.788074,-71.463148
11400,PONTIAC FS RESERVOIR,41.787815,-71.431467
11420,EDDY FS CALIFORNIA,41.788375,-71.402563
11435,PAWTUCKET OPP WATER VIEW,41.788205,-71.364326
11440,PAWTUCKET OPP BAYVIEW SCHOOL,41.78927,-71.364873
11465,PLAINFIELD FS SAILOR WAY,41.788703,-71.507889
11485,WAMPANOAG AT MOBIL GAS STATION,41.789554,-71.333269
11490,RESERVOIR NS ROGER WILLIAMS,41.789245,-71.429915
11495,PLAINFIELD NS SIMMONSVILLE,41.78918,-71.504541
11510,ELMWOOD FS CADILLAC,41.789451,-71.421333
11515,CRANSTON NS HAVE,41.789736,-71.462335
11520,CRANSTON OPP VALLONE,41.789386,-71.462614
11530,ELMWOOD FS HEMPSTEAD,41.789447,-71.421644
11535,CARR STREET (R-LINE),41.789596,-71.404727
11540,RESERVOIR OPP ROGER WILLIAMS,41.789266,-71.430208
11550,PAWTUCKET AT BAYVIEW SCHOOL,41.789583,-71.364829
11555,ALLENS AT 934 ALLENS,41.789667,-71.396096
11570,CRANSTON FS FLORIDA,41.789832,-71.459942
11575,EDDY BETWEEN CAROLINA & NEW YORK,41.790143,-71.403085
11590,CRANSTON OPP FLORIDA,41.790013,-71.46045
11610,CRANSTON NS DYER,41.790502,-71.456549
11615,CRANSTON NS BYRON,41.790429,-71.456557
11620,PLAINFIELD NS INDEPENDENCE WAY,41.789674,-71.501118
11650,CRANSTON NS VICTORIA,41.790749,-71.454114
11655,RESERVOIR OPP DELMAR,41.790413,-71.429027
11660,CRANSTON NS STANDISH,41.790909,-71.453
11670,CRANSTON NS STANDISH,41.790766,-71.453278
11680,ALLENS NS GEORGIA,41.791906,-71.39683
11695,CRANSTON NS GANSETT,41.791463,-71.452052
11700,CITIZENS OPERATIONS CTR - E PROVIDENCE,41.790121,-71.356338
11715,WAMPANOAG OPP GATES OF HEAVEN,41.791481,-71.344402
11720,ALLENS FS CALIFORNIA,41.789285,-71.396178
11725,ELMWOOD OPP RIPTA HQ,41.792051,-71.422788
11730,PLAINFIELD FS NARDOLILLO,41.791098,-71.496822
11735,PLAINFIELD OPP NARDOLILLO,41.79101,-71.496814
11740,ELMWOOD OPP THACKERY,41.79186,-71.422911
11745,CRANSTON AT 1260 CRANSTON,41.791435,-71.451882
11750,PLAINFIELD FS CLAIBORNE PELL MANOR,41.791482,-71.494008
11760,PLAINFIELD FS PLAINFIELD CIR,41.791451,-71.489921
11770,PAWTUCKET NS BOND,41.791767,-71.365686
11775,PLAINFIELD FS BLUE JAY WAY,41.791554,-71.49178
11780,RESERVOIR FS ARDOENE,41.791778,-71.427989
11810,EDDY BETWEEN CHAPMAN & TORONTO,41.791868,-71.403495
11815,CITIZENS WAY NS TRIPPS LN,41.791094,-71.354429
11820,WAMPANOAG AT 610 WAMPANOAG,41.791103,-71.336213
11825,TRIPPS LN NS ORCHARD VIEW MANOR,41.79134,-71.354289
11835,RESERVOIR NS ARDOENE,41.791913,-71.428113
11840,CRANSTON FS HOWARD,41.792529,-71.451251
11860,PAWTUCKET AT 3044 PAWTUCKET,41.792408,-71.365233
11865,PLAINFIELD FS PEZZULO,41.792526,-71.488421
11870,ALLENS NS GEORGIA,41.792374,-71.397217
11875,TRIPPS LN OPP MADELINE,41.792115,-71.353956
11880,ROGER WILLIAMS PARK (R-LINE),41.792248,-71.40721
11885,CRANSTON NS PURITAN,41.792959,-71.451188
11890,ROGER WILLIAMS PARK (R-LINE),41.792973,-71.408311
11900,ELMWOOD OPP WARRINGTON,41.793371,-71.423731
11910,PLAINFIELD AT 1469 PLAINFIELD,41.793702,-71.486798
11925,ELMWOOD FS WARRINGTON,41.793509,-71.423633
11930,WAMPANOAG AT GATES OF HEAVEN,41.791919,-71.344223
11945,EDDY NS JOHNSON,41.79339,-71.404099
11950,PLAINFIELD AT YEOMAN,41.793604,-71.486724
11960,RESERVOIR FS NARRAGANSETT,41.794317,-71.426624
11965,RESERVOIR NS ALGONQUIN,41.793697,-71.427014
11970,TRIPPS LN AT 15 TRIPPS LANE,41.794193,-71.353347
11975,ALLENS NS BAKER,41.79395,-71.397702
11985,CADILLAC OPP RODMAN (COLONY HOUSE),41.794165,-71.416191
11990,CRANSTON OPP BURNHAM,41.794085,-71.450399
12005,PAWTUCKET OPP MOUNTAIN,41.79412,-71.364684
12015,TRIPPS LN OPP CITIZENS BANK,41.794662,-71.353405
12020,PAWTUCKET NS MOUNTAIN,41.794619,-71.364651
12045,BROAD AT PRAIRIE,41.794612,-71.410082
12050,ALLENS OPP ELLENFIELD,41.794334,-71.397665
12055,ALLENS NS ERNEST,41.795271,-71.39822
12065,CRANSTON OPP 1141 CRANSTON,41.795076,-71.449655
12070,EARLY STREET (R-LINE),41.79591,-71.411875
12075,PLAINFIELD OPP MILL,41.795452,-71.483732
12090,ELMWOOD OPP LENOX,41.795236,-71.424775
12095,CHESTNUT HILL FS LAUREL HILL,41.795443,-71.452884
12105,ELMWOOD NS LENOX,41.795032,-71.424457
12110,TRIPPS LN NS WAMPANOAG TRAIL,41.795715,-71.352944
12115,TRIPPS LN FS WAMPANOAG TRAIL,41.795579,-71.353166
12120,DYER NS CHESTNUT HILL,41.795706,-71.457319
12125,DYER OPP CHESTNUT HILL,41.795912,-71.457567
12135,BROAD FS EARLY,41.795695,-71.411475
12140,CRANSTON FS SENECA,41.795713,-71.449511
12150,RESERVOIR AT ONE RESERVOIR AVENUE,41.796895,-71.426094
12155,RESERVOIR FS ADELAIDE,41.796262,-71.425953
12165,LAUREL HILL NS LOOKOUT,41.796106,-71.45254
12170,CRANSTON AT 1070 CRANSTON,41.797367,-71.448413
12180,CHESTNUT HILL AT 122 CHESTNUT HILL,41.796028,-71.455352
12185,PLAINFIELD FS ATWOOD,41.795865,-71.483153
12210,PLAINFIELD NS CLEMENCE,41.796183,-71.482101
12230,PAWTUCKET NS IVAN,41.796186,-71.363978
12245,ALVAREZ SCHOOL,41.795244,-71.42933
12265,ELMWOOD NS ATLANTIC,41.796616,-71.425474
12275,PLAINFIELD AT 1350 PLAINFIELD,41.796639,-71.480483
12320,PLAINFIELD OPP FLETCHER,41.796928,-71.479772
12325,ALLENS FS 642 ALLENS,41.796985,-71.398597
12335,ALLENS OPP I-95N ON RAMP,41.80056,-71.400451
12355,PLAINFIELD OPP SCHOOL,41.79729,-71.478887
12365,PAWTUCKET NS HEATH,41.797494,-71.363713
12370,EDDY NS PAVILION,41.797295,-71.405053
12385,EDDY FS PAVILION,41.797334,-71.405205
12395,DYER AT 562 DYER,41.797626,-71.457671
12400,ELMWOOD NS ONTARIO,41.797604,-71.425834
12410,DYER AT 565 DYER,41.79775,-71.4578
12415,CRANSTON FS DOVER,41.797434,-71.448587
12435,PAWTUCKET NS WAMPANOAG TRL,41.79773,-71.363434
12450,PLAINFIELD AT 1244 PLAINFIELD,41.798046,-71.475836
12475,PLAINFIELD NS POCASSET,41.798144,-71.47596
12480,THURBERS AVENUE (R-LINE),41.798394,-71.414778
12495,EDDY OPP APPLEGATE,41.799083,-71.405528
12500,EDDY NS APPLEGATE,41.799188,-71.405678
12545,DYER OPP ELWYN,41.798721,-71.457947
12560,LAUREL HILL FS ELWYN,41.798532,-71.452277
12570,ALLENS AT LEHIGH METALS CORP,41.801888,-71.40102
12575,PLAINFIELD AT 1192 PLAINFIELD,41.798657,-71.473367
12580,GARFIELD AVE AT STOP & SHOP,41.795586,-71.443918
12581,GARFIELD NS GIBBS PKING LOT,41.800858,-71.441739
12582,GARFIELD AVE AT LOWES,41.795793,-71.444103
12590,THURBERS AVENUE (R-LINE),41.798155,-71.414635
12605,PAWTUCKET OPP VINCENT,41.799178,-71.362926
12625,ELMWOOD OPP REDWING,41.799313,-71.42633
12630,PAWTUCKET NS VINCENT,41.799153,-71.363072
12635,PRAIRIE FS COLFAX,41.799406,-71.412233
12645,CRANSTON FS MCCABE,41.799234,-71.447661
12660,PLAINFIELD FS STIMPSON,41.799552,-71.472077
12670,CRANSTON OPP BIRCH,41.799857,-71.446954
12680,EDDY NS THURBERS,41.800199,-71.405954
12685,LAUREL HILL FS GLADSTONE,41.799644,-71.452296
12690,EDDY FS THURBERS,41.80067,-71.405944
12695,CRANSTON NS BIRCH,41.800111,-71.446991
12720,ONTARIO STREET (R-LINE),41.800125,-71.417112
12725,PRAIRIE NS COLFAX,41.799416,-71.412133
12735,LAUREL HILL NS ARGYLE,41.800281,-71.452139
12750,GARFIELD OPP SANFORD BROWN,41.800871,-71.441511
12760,GARFIELD FS CRANSTON,41.802491,-71.441904
12763,CRANSTON OPP GARFIELD,41.803025,-71.442373
12770,ONTARIO STREET (R-LINE),41.800621,-71.417589
12775,PLAINFIELD AT EVANS,41.800672,-71.470076
12795,LAUREL HILL FS WALES,41.801306,-71.452015
12800,ELMWOOD OPP HAWTHORNE,41.801019,-71.426316
12805,LAUREL HILL FS BRACKEN,41.801522,-71.452132
12815,CRANSTON FS WHIPPLE,41.801453,-71.445533
12820,PAWTUCKET FS HOWLAND,41.801658,-71.36207
12850,DYER OPP 448 DYER,41.801704,-71.458355
12855,CRANSTON FS WEBSTER,41.80167,-71.445526
12860,PRAIRIE FS OXFORD,41.801901,-71.413219
12885,PAWTUCKET NS UNITY,41.801931,-71.362073
12895,PLAINFIELD FS MORGAN,41.80206,-71.469323
12905,ALLENS NS WARREN,41.803494,-71.401741
12910,ALLENS AT I-95N ON RAMP,41.800844,-71.400272
12915,PLAINFIELD OPP MORGAN,41.802245,-71.46898
12930,EDDY FS ASHMONT,41.802396,-71.406597
12935,EDDY OPP ASHMONT,41.802353,-71.40639
12950,LAUREL HILL FS MAPLEWOOD,41.803201,-71.452027
12960,S BROADWAY OPP MARTIN,41.802889,-71.3741
12965,LAUREL HILL FS HEATHER,41.80302,-71.451955
12995,CRANSTON NS GARFIELD,41.802805,-71.442741
13025,CRANSTON FS WASHINGTON,41.803322,-71.440087
13035,ELMWOOD NS BURNETT,41.80327,-71.425915
13050,ELMWOOD AT MAWNEY,41.803575,-71.425615
13060,PRAIRIE AT 384 PRAIRIE,41.80376,-71.413975
13075,PRAIRIE FS POTTERS,41.803738,-71.414088
13080,CATAMORE NS JORDAN,41.803879,-71.343008
13085,PUBLIC STREET (R-LINE),41.804199,-71.419327
13095,EVERGREEN FS JORDAN,41.80397,-71.344855
13100,PAWTUCKET NS WALMER,41.803833,-71.361246
13105,PLAINFIELD OPP 983 PLAINFIELD,41.804632,-71.466949
13110,ALLENS AT 307 ALLENS,41.804909,-71.402348
13120,LAUREL HILL NS WAKEFIELD,41.804054,-71.451888
13125,ALLENS NS LEHIGH,41.80218,-71.400865
13130,PAWTUCKET OPP WALMER,41.803994,-71.361387
13135,PUBLIC STREET (R-LINE),41.804919,-71.419455
13145,CRANSTON FS ANTHONY,41.804276,-71.438753
13160,ELMWOOD AT MOORE,41.804723,-71.425304
13165,PLAINFIELD NS COOLIDGE,41.804646,-71.466664
13175,LAUREL HILL NS FARMINGTON,41.805059,-71.452037
13180,DYER OPP MICA,41.804305,-71.458218
13225,S BROADWAY FS RIDGE,41.804984,-71.373294
13235,S BROADWAY OPP LEE,41.805508,-71.37324
13240,PAWTUCKET NS BRIGHTRIDGE,41.805683,-71.360785
13245,PRAIRIE AT SARATOGA,41.805225,-71.414616
13250,EDDY FS SHERBURNE,41.805486,-71.407118
13265,PAWTUCKET NS GARDINER,41.805916,-71.36055
13270,CRANSTON NS BENEDICT,41.805457,-71.437373
13290,CRANSTON NS WADSWORTH,41.805672,-71.436928
13295,PLAINFIELD OPP 928 PLAINFIELD,41.805528,-71.465501
13310,POCASSET NS ALTO,41.805593,-71.457618
13340,EDDY FS TRASK,41.80474,-71.407087
13345,UNION AT 429 UNION,41.806311,-71.451876
13355,UNION NS TERRACE,41.806285,-71.450046
13360,LAUREL HILL NS UNION,41.805877,-71.452174
13365,UNION NS TERRACE,41.806182,-71.450167
13370,POCASSET NS UNION,41.806442,-71.457106
13385,PARKIS AVENUE (R-LINE),41.809151,-71.420772
13405,ELMWOOD NS PLENTY,41.807089,-71.42475
13415,UNION NS WEBSTER,41.806766,-71.447699
13425,UNION NS WEBSTER,41.806914,-71.447386
13430,ALLENS FS WARREN,41.8035,-71.401474
13435,S BROADWAY OPP 1253 S BROADWAY,41.807274,-71.372493
13450,PLAINFIELD NS FARMINGTON,41.80694,-71.46413
13455,PLENTY STREET - SAINT JOSEPH'S HOSPITAL (R-LINE),41.806588,-71.420011
13460,S BROADWAY FS SETH,41.807195,-71.372641
13470,CRANSTON FS LINWOOD,41.807254,-71.435477
13475,CRANSTON NS LINWOOD,41.807316,-71.435524
13480,UNION OPP PRISCILLA,41.807256,-71.445845
13485,ALLENS NS CHEATERS,41.807548,-71.403527
13495,EDDY NS PUBLIC,41.807605,-71.407268
13500,PUBLIC NS EDDY,41.807479,-71.406924
13505,UNION NS PRISCILLA,41.807379,-71.445713
13515,WARREN FS HIGHLAND,41.807772,-71.341934
13525,POCASSET NS SOPHIA,41.807621,-71.456358
13535,WARREN NS HIGHLAND,41.807773,-71.342212
13550,CCRI (PROVIDENCE CAMPUS),41.807713,-71.412881
13555,POCASSET OPP SOPHIA,41.807373,-71.456389
13565,ALLENS OPP 253 ALLENS,41.807239,-71.403114
13575,PLAINFIELD OPP 861 PLAINFIELD,41.808222,-71.463385
13585,UNION OPP CUMERFORD,41.808006,-71.442975
13595,PAWTUCKET NS RICE,41.807923,-71.359835
13600,PAWTUCKET NS HILLSIDE,41.808174,-71.359956
13610,UNION NS ATWOOD,41.808316,-71.442276
13620,S BROADWAY FS FORT,41.80855,-71.372187
13635,CRANSTON NS WAVERLY,41.808463,-71.434516
13645,S BROADWAY OPP 1149 S BROADWAY,41.808281,-71.372168
13650,STANIFORD NS WILLARD,41.808646,-71.411755
13665,POCASSET OPP WESTERLY,41.808845,-71.455476
13685,CRANSTON NS BELLVUE,41.808843,-71.434045
13695,UNION FS LINWOOD,41.808999,-71.439278
13700,UNION OPP LINWOOD,41.809027,-71.439533
13705,WATERMAN OPP STATE,41.808921,-71.341579
13710,PARKIS AVENUE (R-LINE),41.809033,-71.420871
13715,WATERMAN FS STATE,41.809076,-71.341738
13735,POCASSET OPP DANIEL,41.809133,-71.455093
13765,PAWTUCKET OPP BALDWIN,41.810115,-71.359261
13770,WATERMAN OPP 990 WATERMAN,41.809778,-71.343842
13795,ELMWOOD FS W. FRIENDSHIP,41.810158,-71.423752
13805,ELLERY NS WAVERLY,41.809927,-71.438424
13825,PLAINFIELD AT 825 PLAINFIELD,41.808629,-71.463352
13830,EDDY NS BLACKSTONE,41.810248,-71.407272
13835,EDDY NS BLACKSTONE,41.809932,-71.407147
13840,CRANSTON NS FORD,41.810143,-71.432991
13850,GAY NS DUDLEY,41.809862,-71.412821
13855,POSCASSET OPP BARROWS,41.810392,-71.454263
13860,CRANSTON NS SUPERIOR,41.810344,-71.432698
13865,WATERMAN OPP 991 WATERMAN,41.810119,-71.34438
13870,ELLERY NS ROSEDALE,41.810338,-71.43821
13880,POCASSET NS LAUREL HILL,41.81094,-71.453906
13885,ELMWOOD OPP WILSON,41.811208,-71.423075
13895,CRANSTON OPP HOLLIS,41.81095,-71.432132
13900,PAWTUCKET NS WARREN,41.810603,-71.358924
13902,PAWTUCKET FS WARREN,41.811621,-71.358543
13903,PAWTUCKET NS WARREN,41.811674,-71.358835
13905,WATERMAN FS ROCKAWAY,41.811061,-71.347138
13915,POCASSET AT 128 POCASSET,41.811143,-71.452779
13920,WATERMAN AT 900 WATERMAN,41.810947,-71.346566
13945,PLAINFIELD OPP 752 PLAINFIELD,41.810247,-71.462464
13960,WATERMAN AT 865 WATERMAN,41.812134,-71.349166
14000,CHAPIN NS ELLERY,41.811966,-71.438074
14005,EDDY OPP RHODE ISLAND HOSPITAL ENTRANCE,41.812032,-71.406978
14010,RHODE ISLAND HOSPITAL (FRONT DOOR),41.811741,-71.408833
14015,CRANSTON NS CHAPIN,41.811763,-71.431153
14025,CHAPIN NS MESSER,41.811765,-71.435778
14030,CHAPIN FS PARADE,41.81196,-71.431544
14035,EDDY FS BORDEN,41.811967,-71.40713
14040,CHAPIN OPP SYCAMORE,41.811829,-71.43448
14055,CHAPIN FS SYCAMORE,41.811925,-71.434478
14060,CHAPIN NS PARADE,41.811885,-71.431541
14070,POCASSET NS WEBSTER,41.81177,-71.450322
14105,CRANSTON NS PARADE,41.812058,-71.430928
14120,PLAINFIELD OPP SANFORD,41.812396,-71.460957
14125,ELMWOOD NS BRIDGHAM,41.812445,-71.422221
14130,PLAINFIELD NS DANIEL,41.812355,-71.460281
14135,WATERMAN NS COMMERCIAL WAY,41.81252,-71.34963
14140,ELMWOOD FS BRIDGHAM,41.812529,-71.422375
14150,COMMERCIAL WAY NS WATERMAN,41.812847,-71.349748
14155,POCASSET NS WEBSTER,41.812302,-71.449736
14160,POCASSET OPP DUNFORD,41.812436,-71.449389
14175,CRANSTON FS DEXTER,41.812525,-71.429919
14205,PLAINFIELD OPP MERINO,41.812829,-71.457673
14210,PRAIRIE NS PROVIDENCE,41.81293,-71.41512
14220,COMMERCIAL WAY OPP J MEDERIOS,41.815669,-71.347795
14230,CRANSTON NS HARRISON,41.812981,-71.428786
14235,PLAINFIELD AT 549 PLAINFIELD,41.813097,-71.456955
14255,CRANSTON OPP HARRISON,41.813018,-71.428887
14300,PLAINFIELD FS RYE,41.813287,-71.454278
14305,PLAINFIELD AT 445 PLAINFIELD,41.813579,-71.453266
14310,PLAINFIELD OPP DEWEY,41.813531,-71.452358
14320,PAWTUCKET OPP 2289 PAWTUCKET,41.812999,-71.358049
14330,PAWTUCKET NS GROSVENOR,41.813987,-71.35796
14345,PLAINFIELD NS WEBSTER,41.81361,-71.450968
14350,POCASSET FS POCASSET,41.813941,-71.447647
14355,PLAINFIELD NS WEBSTER,41.813759,-71.450636
14360,PLAINFIELD NS POCASSET,41.814089,-71.447588
14365,TRINITY SQUARE,41.813509,-71.421527
14380,BROAD OPP SOMERSET (MCDONALDS),41.813773,-71.421667
14385,CRANSTON FS BRIDGHAM,41.813761,-71.427515
14395,COMMERCIAL WAY OPP POLE 4,41.813942,-71.348969
14415,WARREN NS FRASER,41.814053,-71.371889
14420,WARREN NS S SHARON,41.814364,-71.372559
14435,CRANSTON NS DODGE,41.814466,-71.425921
14441,POINT BETWEEN BEACON & PLAIN,41.814759,-71.414069
14450,CRANSTON OPP DODGE,41.814661,-71.42589
14460,WARREN NS BERKELEY,41.814765,-71.374109
14465,WARREN  NS CARPENTER,41.814951,-71.374393
14470,PLAINFIELD NS PILSUDSKI,41.814851,-71.446447
14475,CRANSTON NS WESTMINSTER,41.817075,-71.422399
14480,COMMERCIAL WAY FS NES RENTALS,41.818322,-71.347529
14485,COMMERCIAL WAY FS J MEDERIOS,41.815782,-71.347427
14515,WARREN NS TENTH,41.815628,-71.376591
14520,BROAD FS LOCKWOOD,41.815197,-71.420822
14525,WARREN AT 184 WARREN,41.815713,-71.376568
14535,WESTMINSTER MIDBLOCK RT 10,41.815766,-71.437746
14540,WESTMINSTER MIDBLOCK RT 10,41.815878,-71.437951
14560,WARREN OPP S PHILLIPS,41.816149,-71.378111
14575,PAWTUCKET NS WATERMAN,41.815481,-71.357159
14580,WESTMINSTER NS SVC RD 3,41.816214,-71.440086
14590,WESTMINSTER NS BAINBRIDGE,41.816186,-71.435295
14600,COMMERCIAL WAY AT 60 COMMERCIAL WAY,41.816458,-71.346487
14610,PLAINFIELD OPP DIKE,41.816474,-71.44433
14615,WESTMINSTER FS PARADE,41.816356,-71.433215
14620,PAWTUCKET NS WATERMAN,41.816824,-71.356541
14625,PAWTUCKET FS WATERMAN,41.816907,-71.356389
14630,WARREN OPP SEVENTH,41.816458,-71.378666
14645,WESTMINSTER FS ALMY,41.816517,-71.432617
14650,WESTMINSTER NS DEXTER,41.816516,-71.431786
14655,WESTMINSTER FS MANTON,41.816644,-71.442574
14660,WARREN NS SICTH,41.816709,-71.379797
14670,WESTMINSTER NS MANTON,41.816805,-71.4428
14675,BROADWAY FS VALLEY,41.816779,-71.440687
14685,WESTMINSTER NS HAMMOND,41.816749,-71.429657
14690,WESTMINSTER OPP HARRISON,41.816785,-71.430215
14700,HARTFORD FS WESTMINSTER,41.81692,-71.44544
14715,BROADWAY NS VALLEY,41.816938,-71.440865
14720,EDDY FS POINT,41.81624,-71.406611
14725,WESTMINSTER NS BRIDGHAM,41.817044,-71.42779
14750,COMMERCIAL WAY AT 70 COMMERCIAL WAY,41.817974,-71.347106
14760,CAHIR FS BROAD,41.817503,-71.4182
14775,CRANSTON FS WESTMINSTER,41.817062,-71.422604
14780,WESTMINSTER NS KNIGHT,41.81721,-71.42618
14785,BROAD NS CAHIR,41.817143,-71.41769
14790,WARREN OPP POTTER,41.81716,-71.38098
14800,WESTMINSTER OPP KNIGHT,41.817116,-71.425997
14805,HARTFORD NS POST OFFICE,41.816909,-71.446418
14815,WESTMINSTER FS WINTER,41.817334,-71.422182
14825,BROAD NS SVC RD 7,41.817128,-71.417347
14830,HARTFORD OPP POST OFFICE,41.816926,-71.446046
14835,WESTMINSTER NS CRANSTON ST,41.817288,-71.422866
14840,HARTFORD NS ETNA,41.817339,-71.450863
14845,WESTMINSTER AT CITIZENS BANK,41.817399,-71.423302
14860,HARTFORD OPP ETNA,41.817397,-71.450732
14865,HARTFORD AT 267 HARTFORD,41.817522,-71.452245
14870,HARTFORD OPP BARRY,41.817397,-71.451634
14875,COMMERCIAL WAY AT 89 COMMERICAL WAY,41.820324,-71.34868
14885,HARTFORD FS BODELL,41.817615,-71.453833
14890,HARTFORD NS BODELL,41.817683,-71.453762
14910,MANTON OPP DELAINE,41.818117,-71.444894
14920,MANTON NS DELAINE,41.81787,-71.44444
14925,WESTMINSTER AT PROVIDENCE SCHOOL DEPT,41.81782,-71.421282
14930,BROADWAY FS BARTON,41.818008,-71.43657
14935,HARTFORD OPP LAUREL HILL,41.817971,-71.455281
14940,BROADWAY NS BARTON,41.818148,-71.436811
14945,COMMERCIAL WAY AT 95 COMMERCIAL WAY,41.820285,-71.348848
14950,WESTMINSTER OPP PROV SCHOOL DEPT,41.817797,-71.421032
14965,BROAD OPP FENNER,41.818274,-71.415945
14970,HARTFORD FS LAUREL HILL,41.817974,-71.455688
14975,HARTFORD NS FLOWER,41.818294,-71.456736
14985,HARTFORD NS IDA,41.818354,-71.457531
14995,BROADWAY NS TOBEY,41.818357,-71.435321
15000,WESTMINSTER NS SVC RD 7,41.818588,-71.419261
15010,BROADWAY FS TOBEY,41.818477,-71.435333
15015,HARTFORD NS MATSON,41.81846,-71.457761
15020,HARTFORD NS MERINO,41.81862,-71.459209
15025,BROAD NS FENNER,41.818517,-71.415767
15040,EDDY NS SHIP,41.820038,-71.408142
15045,BROADWAY FS COURTLAND,41.819438,-71.430609
15050,HARTFORD OPP 482 HARTFORD,41.81877,-71.459939
15055,HARTFORD NS PETTEYS,41.819007,-71.461962
15060,BROADWAY NS ALMY,41.818961,-71.433246
15075,HARTFORD NS BOWLETT,41.819076,-71.461937
15080,HARTFORD NS ELIZA,41.819251,-71.463699
15090,HARTFORD NS OPHELIA,41.819383,-71.464132
15100,HARTFORD NS WINFIELD,41.819279,-71.475019
15110,PAWTUCKET OPP EAST PROVIDENCE HIGH SCHOOL,41.818529,-71.355933
15115,WATERMAN FS GURNEY,41.819568,-71.36681
15120,PAWTUCKET FS EAST PROVIDENCE HIGH SCHOOL,41.820568,-71.356384
15135,HARTFORD NS SPRINGFIELD,41.819496,-71.465607
15145,MANTON NS ALEPPO,41.819356,-71.446089
15150,TAUNTON FS POTTER,41.819685,-71.379222
15180,HALL AT 56 HALL,41.819445,-71.363824
15185,HARTFORD NS KING PHILIP,41.819566,-71.465274
15205,HARTFORD NS S WILLIAMS,41.81947,-71.475507
15215,TAUNTON AVE / GROVE AVE,41.819787,-71.377591
15230,BROAD NS CHESTNUT,41.819912,-71.41446
15235,TAUNTON AT 175 TAUNTON,41.81966,-71.37378
15240,TAUNTON OPP GROSVENOR,41.819762,-71.374223
15245,TAUNTON NS IVY,41.819758,-71.37607
15250,TAUNTON OPP ALICE,41.819653,-71.372029
15260,HARTFORD NS MIDDLETON,41.819849,-71.466931
15265,WICKENDEN NS HOPE,41.819577,-71.395911
15270,WICKENDEN FS HOPE,41.81971,-71.395844
15275,HARTFORD FS KILLINGLY,41.819955,-71.469889
15280,TAUNTON OPP RUSSELL,41.819912,-71.369337
15285,E FRANKLIN NS WASHINGTON,41.819906,-71.418431
15290,BROADWAY NS VINTON,41.819965,-71.428401
15295,MANTON OPP JULIAN,41.819867,-71.44669
15300,HARTFORD NS PHILIPS ANGELL,41.819476,-71.472222
15305,BROADWAY FS KNIGHT,41.819787,-71.429695
15310,TAUNTON FS JOHN,41.81972,-71.371724
15335,HARTFORD NS KILLINGLY,41.820062,-71.468852
15355,WICKENDEN FS EAST,41.820086,-71.394342
15360,WASHINGTON OPP JACKSON WALKWAY,41.820902,-71.417817
15365,WICKENDEN NS EAST,41.820194,-71.394353
15385,WICKENDEN NS IVES,41.820179,-71.392136
15395,BROADWAY NS VINTON,41.820262,-71.427737
15410,GOVERNOR NS WICKENDEN,41.820313,-71.391853
15430,JOHN NS RUSSELL,41.821085,-71.370629
15440,HARTFORD AT 956 HARTFORD AVE,41.820638,-71.479681
15455,WATERMAN AT 314 WATERMAN,41.820837,-71.36904
15460,TAUNTON OPP CORA,41.820599,-71.365674
15475,BROADWAY NS BATTEY,41.820572,-71.425917
15495,HARTFORD AT 985 HARTFORD,41.821078,-71.480976
15500,S MAIN FS JAMES,41.820944,-71.403662
15505,S WATER AT JAMES,41.820642,-71.404565
15530,HARTFORD AT 994 HARTFORD AVE,41.82138,-71.482108
15540,PAWTUCKET NS SHOPPERS TOWN MALL,41.820549,-71.356603
15560,BROADWAY NS PALLAS,41.820898,-71.424365
15565,TAUNTON OPP GOLDSMITH,41.820979,-71.362275
15575,EMPIRE OPP WESTMINSTER,41.821,-71.415397
15580,TAUNTON NS GOLDSMITH,41.821198,-71.361796
15600,TAUNTON AT 525 TAUNTON,41.821466,-71.359918
15610,WASHINGTON NS GREENE,41.821125,-71.417253
15615,WASHINGTON NS GREENE,41.821392,-71.417161
15625,BROADWAY FS BRADFORD,41.821525,-71.421772
15630,TAUNTON AT SHOPPERS TOWN MALL,41.821389,-71.359551
15650,BROADWAY NS DEAN,41.821588,-71.422239
15670,HARTFORD AT TRI TOWN HEALTH CTR,41.822291,-71.486154
15680,HARTFORD OPP BORDEN,41.82196,-71.483927
15685,DANIELSON PIKE NS 102,41.825537,-71.669228
15686,chopmist hill fire station,41.815824,-71.663517
15690,IVES NS E TRANSIT,41.821796,-71.392084
15700,IVES NS E TRANSIT,41.821559,-71.391907
15705,TAUNTON OPP ELMWOOD DEALERSHIP,41.821973,-71.354719
15710,TAUNTON AT ELMWOOD DODGE,41.821829,-71.354756
15730,ATWELLS NS BROADWAY,41.822647,-71.418845
15735,S WATER OPP POWER,41.821996,-71.405838
15740,TAUNTON AVE OPP PARK & RIDE,41.822326,-71.35141
15750,HARTFORD NS DIX,41.822457,-71.486691
15755,S MAIN NS POWER,41.822355,-71.405121
15765,TAUNTON AT PARK & RIDE,41.822505,-71.351121
15770,BROADWAY NS SVC RD 8,41.822323,-71.419121
15790,MANTON AT 283 MANTON,41.82232,-71.449704
15805,MANTON NS POPE,41.821774,-71.448834
15810,COMMERCIAL WAY NS TAUNTON,41.822059,-71.349334
15815,DORRANCE NS PINE,41.822472,-71.410316
15825,SABIN OPP EMPIRE,41.822903,-71.417834
15835,COMMERCIAL WAY FS TAUNTON,41.822338,-71.349499
15840,ATWOOD AT 1481 ATWOOD,41.823024,-71.49858
15850,HARTFORD FS WILSON,41.82272,-71.488537
15880,WEYBOSSET OPP EDDY,41.822625,-71.41138
15895,ATWELLS FS BROADWAY (HOLIDAY INN),41.822821,-71.418845
15935,HARTFORD FS DALE,41.823054,-71.490534
15940,MANTON AT 323 MANTON,41.823165,-71.450725
15945,MANTON FS PANAY,41.823098,-71.450845
15950,IVES NS WILLIAMS,41.822965,-71.392098
15955,WATERMAN NS JAMES,41.8232,-71.373506
15960,HARTFORD NS TARA,41.823066,-71.48987
15975,WATERMAN FS JAMES,41.823275,-71.373396
15985,ATWELLS OPP ENTERPRISE,41.823123,-71.421134
15990,S WATER BETWEEN PACKET & PLANET,41.82302,-71.406731
16000,WASHINGTON NS MATHEWSON,41.823118,-71.414706
16005,N BROADWAY FS MOWRY,41.823806,-71.366292
16015,HARTFORD AVE OPP 1305 HARTFORD,41.823057,-71.494639
16020,ATWOOD NS 1478 ATWOOD,41.823204,-71.498882
16025,ATWELLS FS ENTERPRISE,41.823285,-71.421234
16035,SABIN MIDBLOCK RI CONVENTION CTR,41.823682,-71.416802
16045,ATWELLS NS ALBRO,41.823453,-71.424852
16090,SABIN NS MATHEWSON,41.824328,-71.416081
16095,ATWELLS FS PEQUOT,41.823379,-71.42285
16105,ATWELLS NS DEPASQUALE,41.823558,-71.427024
16110,ATWELLS FS DEAN,41.8235,-71.424812
16115,HARTFORD AT 1357 HARTFORD AVE,41.823618,-71.497234
16120,HARTFORD FS ATWOOD,41.823624,-71.497747
16125,WEYBOSSET FS PECK,41.823586,-71.410117
16155,ATWELLS OPP DEPASQUALE,41.823678,-71.427013
16165,N BROADWAY OPP MOWRY,41.823602,-71.366641
16175,ATWELLS NS SUTTON,41.823759,-71.429522
16195,ATWELLS NS SUTTON,41.823833,-71.429172
16200,MANTON AT 375 MANTON,41.824243,-71.452376
16205,ATWELLS NS AMES,41.823864,-71.431226
16210,ATWELLS NS BOND,41.823281,-71.423252
16235,ATWELLS NS HEWITT,41.823913,-71.430266
16240,ATWELLS NS KNIGHT,41.824027,-71.432963
16250,ATWELLS OPP KNIGHT,41.824089,-71.432431
16255,PAWTUCKET NS OFFICE PKWY,41.824735,-71.354217
16275,ATWELLS FS AMES,41.82398,-71.431226
16295,MANTON NS LYNCH,41.82441,-71.452449
16310,S WATER FS CRAWFORD,41.823968,-71.40739
16335,IVES NS PRESTON,41.824063,-71.392268
16355,ATWELLS FS VALLEY,41.824491,-71.438853
16370,ATWELLS FS EAGLE,41.824569,-71.436244
16385,WEYBOSSET NS POST OFFICE CT,41.824554,-71.409645
16395,WATERMAN OPP SUMMIT,41.825202,-71.376823
16400,KENNEDY PLAZA (STOP B),41.824733,-71.411583
16405,ATWELLS AT 740 ATWELLS,41.8246,-71.441245
16425,N BROADWAY NS BLANCHE,41.824986,-71.365655
16435,KENNEDY PLAZA (STOP C),41.824887,-71.411348
16445,S MAIN AT SUPERIOR COURT,41.823572,-71.406197
16460,N BROADWAY AT 645 N BROADWAY,41.824958,-71.365828
16465,MANTON FS SALMON,41.825035,-71.453874
16475,KENNEDY PLAZA (STOP G),41.825012,-71.411823
16480,WATERMAN NS SUMMIT,41.825279,-71.377191
16485,KENNEDY PLAZA (STOP D),41.825109,-71.411042
16510,MANTON OPP SALMON,41.825122,-71.453887
16520,WASHINGTON ST AT KENNEDY PLAZA,41.82472,-71.41233
16525,KENNEDY PLAZA (STOP H),41.825212,-71.41155
16530,MEMORIAL FS WESTMINSTER,41.824436,-71.408538
16555,KENNEDY PLAZA (STOP E),41.825233,-71.410869
16565,MANTON OPP 470 MANTON,41.825615,-71.455794
16585,KENNEDY PLAZA (STOP V),41.825123,-71.412413
16590,KENNEDY PLAZA (STOP I),41.825407,-71.411262
16595,S MAIN FS HOPKINS,41.824609,-71.407003
16610,IVES FS E GEORGE,41.82589,-71.39257
16620,IVES NS E GEORGE,41.825767,-71.392637
16630,KENNEDY PLAZA (STOP J),41.825537,-71.411076
16640,MANTON AT 470 MANTON,41.825608,-71.456278
16645,EAST SIDE MARKET PLACE,41.825724,-71.386757
16690,MANTON NS GLENBRIDGE,41.826005,-71.458565
16710,MANTON NS RARITAN,41.826121,-71.458792
16720,KENNEDY PLAZA (STOP X),41.825999,-71.412244
16745,EXCHANGE NS MEMORIAL,41.826684,-71.411773
16770,PITMAN BETWEEN GANO & IVES,41.826401,-71.391654
16775,MEMORIAL NS EXCHANGE ST,41.826555,-71.41272
16785,MANTON AT 588 MANTON,41.826622,-71.460367
16795,PITMAN BETWEEN GANO & IVES,41.826516,-71.391316
16810,PITMAN FS GANO,41.826527,-71.38987
16820,S MAIN NS WASHINGTON,41.826743,-71.408552
16825,PITMAN NS GANO,41.826648,-71.389881
16830,PITMAN FS WAYLAND,41.826687,-71.388113
16835,STEEPLE FS MEMORIAL,41.826496,-71.411257
16845,PITMAN NS WAYLAND,41.826799,-71.388019
16855,TUNNEL FS S MAIN,41.82678,-71.408541
16860,DANIELSON PIKE OPP ST MARY,41.826722,-71.639317
16870,MASSASOIT FS SUTTON,41.827277,-71.375701
16875,MANTON AT 610 MANTON,41.827152,-71.460933
16885,MASSASOIT OPP SUTTON,41.82719,-71.376149
16890,TUNNEL NS S MAIN,41.826842,-71.408585
16900,N MAIN NS N COURT,41.828988,-71.40971
16905,TUNNEL NS THAYER,41.827607,-71.400864
16910,MANTON OPP 600 MANTON,41.827182,-71.460842
16920,DANIELSON PIKE NS ST MARY,41.826873,-71.639343
16925,PAWTUCKET AVE OPP BASEBALL FIELD,41.827539,-71.352674
16930,PAWTUCKET AT BASEBALL FIELD,41.827778,-71.352527
16940,FRANCIS FS FINANCE WAY,41.827694,-71.415248
16960,DANIELSON PIKE NS SUDDARD,41.827734,-71.647668
16961,DANIELSON PIKE FS 857 DANIELSON PIKE,41.827387,-71.653399
16970,WATERMAN NS HOPE,41.827592,-71.397452
16973,DANIELSON PIKE AT 945 DANIELSON PIKE,41.825904,-71.660897
16974,DANIELSON PIKE AT 864 DANIELSON PIKE,41.827255,-71.653096
16975,DANIELSON PIKE NS SUDDARD,41.827703,-71.647185
17000,WATERMAN FS GOVERNOR,41.827639,-71.393764
17005,MANTON AT 652 MANTON,41.828184,-71.46177
17040,PROVIDENCE PLACE MALL,41.828484,-71.415344
17045,TUNNEL FS THAYER,41.827682,-71.400886
17050,WATERMAN FS BUTLER,41.827997,-71.385365
17055,WATERMAN FS GANO,41.82823,-71.390443
17070,N BROADWAY FS DEWEY,41.827463,-71.363605
17075,N BROADWAY FS MASSASOIT,41.829778,-71.362798
17080,MT PLEASANT NS CHAUCER,41.8286,-71.449185
17085,ANGELL AT PRESCOTT LIBRARY,41.828357,-71.398382
17095,WATERMAN NS HENDERSON BRIDGE [ON-RAMP],41.827568,-71.383009
17100,ANGELL NS HOPE,41.828462,-71.397302
17105,WATERMAN FS WAYLAND,41.828519,-71.388171
17120,BROOK FS ANGELL,41.828286,-71.399446
17125,MASSASOIT NS HENDERSON BRIDGE [ON-RAMP],41.828758,-71.371558
17135,WAYLAND FS WATERMAN,41.828921,-71.388232
17145,PAWTUCKET OPP CENTRE,41.829091,-71.3523
17155,PAWTUCKET NS CENTRE,41.829941,-71.351978
17165,MANTON OPP BALTIMORE,41.829355,-71.462849
17170,ANGELL OPP IVES,41.829218,-71.393025
17180,MANTON NS BALTIMORE,41.829257,-71.462606
17185,S ANGELL AT 120 S ANGELL,41.829247,-71.383528
17190,THAYER NS MEETING,41.82922,-71.400855
17215,S ANGELL FS BUTLER,41.829588,-71.385298
17220,LEANDER - HILLCREST APTS,41.829305,-71.46083
17235,N BROADWAY NS ROSEMERE,41.829784,-71.362679
17250,N BROADWAY NS MERRILL,41.828413,-71.363296
17255,WAYLAND NS S ANGELL,41.829991,-71.387948
17265,GASPEE ST AT TRAIN STATION,41.829338,-71.41384
17266,GASPEE NS SMITH,41.83081,-71.412641
17270,GASPEE ST OPP TRAIN STATION,41.829413,-71.41391
17275,HARTFORD NS RESERVOIR,41.829486,-71.53711
17280,N MAIN NS CHURCH,41.830783,-71.410301
17285,ANGELL FS WAYLAND,41.830134,-71.388391
17290,ANGELL FS ELMGROVE,41.829826,-71.389833
17295,DANIELSON PIKE AT 575 DANIELSON PIKE,41.830654,-71.628416
17300,HARTFORD FS CORONA,41.83186,-71.545336
17315,DANIELSON PIKE OPP 493 DANIELSON PIKE,41.830547,-71.627772
17325,MT PLEASANT NS BEAUFORT,41.830615,-71.449494
17330,HARTFORD FS BELFIELD,41.830358,-71.530992
17355,MANTON NS MANTON CT,41.831596,-71.463688
17360,HARTFORD AT TRINITY CHURCH,41.830777,-71.528791
17385,N BROADWAY NS DUNBAR,41.831398,-71.361503
17390,N BROADWAY NS MEACOMET,41.831072,-71.361974
17400,CANAL FS SMITH,41.83098,-71.411328
17405,HARTFORD AT POLE 39,41.82999,-71.531539
17420,HARTFORD NS EARHART,41.8312,-71.54323
17425,BROOK NS HOPE,41.831154,-71.399804
17430,THAYER NS BOWEN,41.831181,-71.401104
17435,MANTON AT 770 MANTON,41.831021,-71.463795
17440,DANIELSON PIKE OPP 449 DANIELSON PIKE,41.831399,-71.617023
17460,STATE NS SMITH,41.83236,-71.413401
17480,DANIELSON PIKE NS ELMDALE,41.831784,-71.61191
17485,DANIELSON PIKE AT STATE POLICE COMPLEX,41.831913,-71.6041
17486,DANIELSON PIKE FS BATTY MEETINHOUSE,41.831301,-71.606475
17490,SMITH NS GASPEE,41.831619,-71.414471
17500,CHALKSTONE AT VA HOSPITAL,41.832758,-71.434433
17505,DANIELSON PIKE NS DEXTER,41.831522,-71.615514
17510,DANIELSON PIKE NS 272 DANIELSON PIKE,41.832656,-71.600777
17515,DANIELSON PIKE NS SHOLLES,41.831747,-71.583625
17520,DANIELSON PIKE AT 449 DANIELSON PIKE,41.831575,-71.616911
17530,HARTFORD AT 263 HARTFORD,41.829666,-71.532747
17535,SMITH FS GASPEE,41.831788,-71.414078
17540,SMITH FS PARK,41.831809,-71.4166
17545,DANIELSON PIKE OPP SHOLLES,41.83183,-71.583935
17555,DANIELSON PIKE FS ROCKLAND,41.831959,-71.611727
17556,DANIELSON PIKE NS 443 DANIELSON PIKE,41.831698,-71.615239
17560,SMITH NS PARK,41.831882,-71.41562
17565,N BROADWAY OPP CENTRE,41.832609,-71.360764
17575,PAWTUCKET NS DROWNE PKWAY,41.831912,-71.349919
17580,DANIELSON PIKE AT 155 DANIELSON PIKE,41.832353,-71.588693
17590,DANIELSON PIKE OPP STATE POLICE COMPLEX,41.831776,-71.604018
17595,DANIELSON PIKE S BETSY,41.831125,-71.606525
17600,PAWTUCKET NS BLYTHE,41.832702,-71.348411
17620,CHALKSTONE FS SISSON,41.832088,-71.455393
17625,DANIELSON PIKE AT SCITUATE HARDWARE,41.833946,-71.578733
17635,CHALKSTONE NS BERLIN,41.83227,-71.441828
17645,CHALKSTONE OPP SISSON,41.832259,-71.455446
17655,CHALKSTONE NS BERLIN,41.832315,-71.441486
17660,CHALKSTONE FS CANTON,41.832347,-71.442899
17665,CHALKSTONE NS GRAY,41.832303,-71.453315
17670,SMITH OPP COMMON,41.832823,-71.419608
17675,CHALKSTONE OPP ALDINE,41.832389,-71.453766
17685,CHALKSTONE NS ACADEMY,41.832494,-71.444936
17690,CHALKSTONE FS ACADEMY,41.832339,-71.443711
17695,CHALKSTONE NS ACADEMY,41.832421,-71.444113
17700,HARTFORD AT 265 HARTFORD,41.829387,-71.534848
17705,DANIELSON PIKE MIDBLOCK SPRINGBROOK RD,41.832747,-71.601287
17710,CHALKSTONE OPP STANDISH,41.832432,-71.452042
17715,CHALKSTONE NS STANDISH,41.832546,-71.452021
17720,CHALKSTONE NS LAWN,41.832744,-71.446578
17725,CHALKSTONE NS WINTHROP,41.832642,-71.451079
17730,CHALKSTONE NS HAROLD,41.832372,-71.439621
17745,CHALKSTONE NS BERLIN,41.832363,-71.442337
17750,CHALKSTONE NS MT PLEASANT,41.832802,-71.449341
17760,DANIELSON PIKE MIDBLOCK INSTITUTE LANE,41.832232,-71.582295
17765,CHALKSTONE NS HILLCREST,41.832865,-71.458571
17770,DANIELSON PIKE FS N SCITUATE FIRE DEPT,41.832869,-71.591366
17775,STOP&SHOP (MANTON AVENUE - PROVIDENCE),41.832444,-71.465879
17780,CHALKSTONE OPP LAWN,41.832696,-71.446591
17790,HARTFORD FS BROWN,41.832796,-71.549487
17795,CHALKSTONE NS MT PLEASANT,41.83262,-71.450299
17805,CHALKSTONE OPP HILLCREST,41.833012,-71.458629
17810,CHALKSTONE NS RIVER,41.832747,-71.43837
17825,SMITH FS COMMON,41.832855,-71.419433
17830,GREENVILLE OPP 30 GREENVILLE,41.833024,-71.472251
17835,HARTFORD MIDBLOCK PENDLETON,41.82932,-71.537558
17845,HOPE OPP BARNES,41.832911,-71.400831
17850,GREENVILLE NS TRAVER,41.832699,-71.4709
17855,THAYER OPP 373 THAYER,41.832729,-71.40132
17860,CHALKSTONE NS HARMONY,41.83314,-71.460647
17870,PAWTUCKET NS BARBARA,41.832772,-71.348261
17875,MANTON AT 989 MANTON,41.833235,-71.469905
17885,CHALKSTONE AT 1632 CHALKSTONE,41.832836,-71.462892
17890,MANTON OPP 871 MANTON,41.833496,-71.465879
17905,GREENVILLE OPP LEE,41.833143,-71.473695
17910,CHALKSTONE FS OBADIAH BROWN,41.833088,-71.46161
17920,HARTFORD OPP CORONA,41.831646,-71.545366
17925,CHALKSTONE FS FERN,41.83296,-71.437422
17936,STATE FS ORMS (STATE OFFICES),41.833821,-71.413928
17940,CHALKSTONE OPP ROGER WILLIAMS HOSPITAL,41.833677,-71.435494
17945,MANTON OPP 985 MANTON,41.833152,-71.469827
17950,HARTFORD NS PINE GROVE,41.833069,-71.553351
17960,HARTFORD FS PINE GROVE,41.833226,-71.553395
17965, FRUIT HILL FS HUBER,41.834493,-71.46797
17970,GREENVILLE OPP CECIL,41.833524,-71.475164
17975,SMITH NS ORMS,41.833524,-71.421251
17980,CHALKSTONE AT 1644 CHALKSTONE,41.833231,-71.463577
17985,ELMGROVE NS UNIVERSITY,41.833322,-71.390444
17990,MANTON AT 883 MANTON,41.833592,-71.465913
18000,CHALKSTONE AT ROGER WILLIAMS HOSPITAL,41.834024,-71.434638
18005,GREENVILLE AT 63 GREENVILLE,41.833518,-71.47474
18010,MANTON AT 954 MANTON,41.833615,-71.46876
18015,SMITH NS ORMS,41.833921,-71.422479
18025,HARTFORD FS 2741 HARTFORD,41.833562,-71.558359
18030,PAWTUCKET NS GREENWOOD,41.834781,-71.348302
18045,DANIELSON PIKE FS 33 DANIELSON PIKE,41.834091,-71.578835
18050,MANTON NS WESTCOTT,41.833822,-71.468478
18060,MT PLEASANT AT 260 MT PLEASANT,41.833483,-71.450068
18065,DANIELSON PIKE AT SCITUATE VILLAGE,41.835254,-71.573381
18070,HARTFORD AT 2650 HARTFORD,41.833394,-71.558573
18080,HOPE NS ALUMNI,41.834601,-71.401252
18085,CHALKSTONE NS GARFIELD,41.833881,-71.43265
18090,SMITH FS DUKE,41.834771,-71.424672
18095,CHALKSTONE FS GARFIELD,41.833828,-71.432265
18100,SMITH FS NOLAN,41.834573,-71.423805
18105,CHALKSTONE FS RAYMOND,41.83424,-71.429822
18110,FRUIT HILL NS HUBER,41.834257,-71.46802
18125,CHARLES NS ORMS,41.83445,-71.411274
18135,CHARLES FS ORMS,41.834473,-71.411442
18140,GREENVILLE OPP 150 GREENVILLE,41.835545,-71.478231
18145,HARTFORD AT 2525 HARTFORD,41.833889,-71.561031
18150,HARTFORD OPP 2828 HARTFORD,41.834193,-71.561531
18160,CHALKSTONE OPP AYRAULT,41.834443,-71.429202
18165,ROGER WILLIAMS AT 20 ROGER WILLIAMS,41.834062,-71.360766
18180,GREENVILLE OPP BECKER,41.834937,-71.477192
18185,PAWTUCKET OPP ELMSGATE WAY,41.834184,-71.347977
18195,CHALKSTONE NS ZONE,41.834641,-71.427876
18200,MT PLEASANT NS BOLTON,41.835299,-71.450288
18215,HARTFORD NS BISHOP,41.834322,-71.563091
18225,DOUGLAS NS ORMS,41.835028,-71.417096
18235,DOUGLAS OPP GODDARD,41.835152,-71.417229
18240,HARTFORD FS HOPKINS,41.834999,-71.566916
18245,CHALKSTONE NS BATH,41.835088,-71.426047
18250,SMITH NS CHALKSTONE,41.835295,-71.425976
18255,ELMGROVE NS PRESIDENT,41.835144,-71.391098
18260,CHALKSTONE FS SMITH,41.835092,-71.426411
18280,HARTFORD OPP 525 HARTFORD,41.834815,-71.567538
18285,MT PLEASANT AT 318 MT PLEASANT,41.835316,-71.450488
18290,HOPE NS CARRINGTON,41.83665,-71.401204
18295,SMITH FS CHALKSTONE,41.83534,-71.425689
18315,GREENVILLE AT 177 GREENVILLE,41.836459,-71.48031
18320,HARTFORD OPP RIDGEWOOD,41.835058,-71.570322
18325,ROGER WILLIAMS NS N BROADWAY,41.83427,-71.361073
18330,PAWTUCKET NS MILLER,41.835437,-71.348332
18335,PAWTUCKET AT 1315 PAWTUCKET,41.836683,-71.348702
18340,HARTFORD OPP SCITUATE VILLAGE,41.835483,-71.573208
18345,DOUGLAS NS BERNON,41.83584,-71.419132
18360,GREENVILLE OPP 177 GREENVILLE,41.836153,-71.479796
18380,DOUGLAS NS CHALKSTONE,41.835966,-71.419255
18390,CHARLES 201 CHARLES MATHEMATICAL SOCIETY,41.836689,-71.412642
18395,DOUGLAS NS CHALKSTONE,41.836811,-71.42148
18405,ROGER WILLIAMS NS DALTON,41.8369,-71.361812
18410,SMITH FS FREDERICK,41.836091,-71.428763
18435,WOONASQUATUCKET NS KLONDIKE,41.836937,-71.469346
18440,GREENVILLE OPP 203 GREENVILLE,41.836587,-71.481022
18445,UNIVERSITY HEIGHTS (R-LINE),41.836882,-71.409504
18455,HOPE FS HOWELL,41.837758,-71.40066
18470,UNIVERSITY HEIGHTS (R-LINE),41.83706,-71.409882
18475,DOUGLAS OPP CRIMEA,41.837097,-71.421833
18480,ROGER WILLIAMS NS WILSON,41.837333,-71.361801
18485,SMITH NS MAUDE,41.837602,-71.433655
18505,DOUGLAS NS CANDACE,41.837494,-71.423169
18510,SMITH OPP MAUDE,41.837618,-71.433385
18525,HOPE S CARRINGTON,41.83668,-71.401111
18526,OLNEY AT HOPE HIGH SCHOOL,41.835663,-71.402779
18530,ELMGROVE NS FREEMAN PKWAY,41.837719,-71.391875
18550,GREENVILLE OPP LYMAN,41.838901,-71.483247
18555,PAWTUCKET OPP KENTON,41.839787,-71.349408
18565,PAWTUCKET NS ST MICHAELS,41.837689,-71.348845
18585,WOONASQUATUCKET OPP JOHN E FOGARTY CTR,41.840636,-71.475585
18590,CAMP NS DOYLE,41.839043,-71.404259
18600,SMITH NS HILLTOP,41.838665,-71.43567
18605,CAMP FS DOYLE,41.83907,-71.404099
18615,CHARLESGATE (R-LINE),41.83902,-71.409008
18625,HOPE FS DOYLE,41.838627,-71.400201
18635,CHARLESGATE (R-LINE),41.838843,-71.409442
18655,WOONASQUATUCKET FS METCALF,41.839057,-71.473023
18665,WOONASQUATUCKET OPP 264 WOONASQUATUCKET,41.842475,-71.476577
18670,WILSON NS WASHBURN,41.838852,-71.360174
18685,WILSON FS ROGER WILLIAMS,41.838749,-71.360133
18690,GEORGE WATERMAN OPP SHERIDAN,41.840176,-71.484537
18695,HOPE NS OBSERVATORY,41.839229,-71.399802
18710,DOUGLAS FS CHAD BROWN,41.838989,-71.425569
18715,DOUGLAS FS CHAD BROWN,41.839523,-71.426036
18720,MT PLEASANT HIGH SCHOOL,41.839935,-71.452546
18721,MT PLEASANT AT MT PLEASANT HIGH SCHOOL,41.841146,-71.45255
18725,MT PLEASANT NS WHITFORD,41.838434,-71.451427
18730,SMITH NS WYNDAM,41.839593,-71.437866
18735,CAMP NS PLEASANT,41.840158,-71.403915
18750,PAWTUCKET NS KENTON,41.839588,-71.349283
18760,CHARLES NS W RIVER,41.839416,-71.416041
18780,CHARLES FS W RIVER,41.839318,-71.416199
18795,CHARLES OPP ADMIRAL,41.841156,-71.417458
18800,WOONASQUATUCKET AT JOHN E FOGERTY CTR,41.840668,-71.475666
18805,WILSON OPP DUNCAN,41.840126,-71.357855
18830,WILSON AT ELM,41.840242,-71.357615
18835,ADMIRAL NS FILMORE,41.840946,-71.420054
18845,GEORGE WATERMAN OPP 95 GEORGE WATERMAN,41.842436,-71.485484
18850,GEORGE WATERMAN AT 33 GEORGE WATERMAN,41.840358,-71.48448
18855,SMITH NS RIVER,41.840617,-71.440223
18860,DOUGLAS OPP SUFFOLK,41.840421,-71.426922
18870,HOPE NS MOUNT HOPE,41.840526,-71.399289
18885,HOPE NS CYPRESS,41.840939,-71.398944
18895,DOUGLAS NS EATON,41.840884,-71.427199
18905,PAWTUCKET NS NEWMAN,41.840855,-71.349551
18910,CAMP NS LOCUST,41.841193,-71.403338
18920,COLLEGE NS MT PLEASANT,41.841651,-71.453265
18930,PAWTUCKET OPP ST MARGARET,41.844337,-71.35142
18935,ELMGROVE FS SESSIONS,41.84225,-71.392595
18940,CAMP NS LOCUST,41.841568,-71.403215
18965,SMITH NS JASTRAM,41.841854,-71.443553
18975,SMITH NS JASTRAM,41.841845,-71.443266
18990,ADMIRAL NS HUXLEY,41.846774,-71.432814
18995,RHODE ISLAND COLLEGE (ROBERTS HALL),41.841629,-71.460627
19000,ADMIRAL FS HUXLEY,41.846816,-71.432772
19005,WOONASQUATUCKET AT 311 WOONASQUATUCKET,41.84425,-71.477039
19010,WOONASQUATUCKET OPP LYMAN,41.842038,-71.476361
19030,ADMIRAL NS CLARKSON,41.842341,-71.421437
19055,WILSON NS GREENWOOD,41.841998,-71.356914
19060,DOUGLAS OPP BERKSHIRE,41.841765,-71.427513
19065,CAMP FS CYPRESS,41.842328,-71.402742
19070,NORTH BURIAL GROUND (R-LINE),41.842258,-71.407565
19080,SMITH NS ACADEMY,41.842653,-71.445407
19095,NORTH BURIAL GROUND (R-LINE),41.843117,-71.407408
19100,WILSON NS GREENWOOD,41.842657,-71.356757
19105,DOUGLAS AT 434 DOUGLAS,41.84217,-71.427539
19115,GEORGE WATERMAN OPP 116 GEORGE WATERMAN,41.84354,-71.485546
19140,ADMIRAL NS PUMGANSETT,41.842837,-71.422195
19155,GEORGE WATERMAN OPP RICE,41.845319,-71.486604
19170,CAMP NS ABBOTT,41.843134,-71.402499
19175,WOONASQUATUCKET OPP 297 WOONASQUATUCKET,41.843355,-71.477189
19190,ADMIRAL NS SUFFOLK,41.8427,-71.421929
19205,SMITH OPP MODENA,41.843809,-71.448061
19210,DOUGLAS NS MOWRY,41.843526,-71.427754
19215,DOUGLAS NS MOWRY,41.843721,-71.427919
19220,HOPE FS ELGIN,41.843539,-71.397749
19230,CAMP NS FOREST,41.843929,-71.402134
19235,SMITH OPP HILARY,41.844676,-71.449407
19240,HUXLEY AT PC ENTRANCE,41.844135,-71.433159
19245,BUTLER HOSPITAL,41.843352,-71.381404
19250,ADMIRAL NS BERKSHIRE,41.844284,-71.423846
19260,MT PLEASANT AT ST AUGUSTINES SCHOOL,41.845538,-71.453609
19300,ADMIRAL NS BERKSHIRE,41.844161,-71.423584
19315,WILSON NS HAMMOND,41.844787,-71.355861
19320,WOONASQUATUCKET AT 387 WOONASQUATUCKET,41.846578,-71.477059
19340,CHARLES OPP 403 CHARLES,41.845635,-71.419029
19345,GEORGE WATERMAN AT 225 GEORGE WATERMAN,41.846664,-71.486679
19350,SMITH NS HILARY,41.844881,-71.449997
19365,CHARLES FS SILVER SPRING,41.84566,-71.418898
19370,270 ADMIRAL ST,41.845059,-71.424973
19380,ADMIRAL FS LONGMONT,41.84543,-71.426076
19395,ADMIRAL FS NEWCOMB,41.845382,-71.426126
19400,HOPE FS DANA,41.845026,-71.397022
19410,CAMP FS WOODBINE,41.845721,-71.401215
19415,HOPE FS LEWIS,41.845789,-71.396533
19420,DOUGLAS OPP COGGESHALL,41.845258,-71.428624
19425,ELMGROVE NS ROCHAMBEAU,41.846153,-71.391385
19430,ADMIRAL OPP 318 ADMIRAL,41.845583,-71.426692
19445,CAMP FS LANCASTER,41.845889,-71.40123
19450,SILVER SPRING OPP WALMART,41.845685,-71.417675
19455,DOUGLAS NS ADMIRAL,41.845668,-71.428758
19460,ROCHAMBEAU NS BLACKSTONE,41.845541,-71.387306
19475,ADMIRAL OPP TAPPAN,41.845724,-71.427642
19490,ADMIRAL NS GRAPE,41.846281,-71.430314
19495,SMITH FS OLD,41.846114,-71.452022
19505,ADMIRAL NS HAWKINS,41.845894,-71.428064
19520,ROCHAMBEAU NS COLE,41.845872,-71.389364
19530,BLACKSTONE FS ROCHAMBEAU,41.846121,-71.386708
19535,ROCHAMBEAU FS CAMP,41.84654,-71.40159
19540,WOONASQUATUCKET OPP INTERVALE,41.846661,-71.477204
19545,SILVER SPRING AT 130 SILVER SPRING,41.847325,-71.415412
19550,BUTLER HOSPITAL ACCESS RD FS BLACKSTONE,41.845879,-71.383373
19555,ROCHAMBEAU OPP 62 ROCHAMBEAU,41.846534,-71.402652
19560,WOONASQUATUCKET NS ZIPPORAH,41.846297,-71.477001
19565,CHARLES NS LOMBARDI,41.84681,-71.419375
19570,ADMIRAL NS DANTE,41.846633,-71.431747
19575,ROCHAMBEAU FS N MAIN,41.846679,-71.404623
19585,CHARLES OPP 469 CHARLES,41.847072,-71.419364
19590,GEORGE WATERMAN NS GARNER,41.849028,-71.48664
19595,ROCHAMBEAU AVENUE (R-LINE),41.846576,-71.405405
19605,BUTLER HOSPITAL ACCESS RD NS BLACKSTONE,41.845932,-71.383297
19610,ROCHAMBEAU AT 62 ROCHAMBEAU,41.84663,-71.40255
19615,ROCHAMBEAU AVENUE (R-LINE),41.846622,-71.405064
19625,SMITH NS LONGWOOD,41.846793,-71.453197
19630,GEORGE WATERMAN OPP VINE,41.84846,-71.486811
19635,DOUGLAS FS CORINA,41.846827,-71.429811
19655,HOPE FS ROCHAMBEAU,41.846691,-71.396237
19660,WILSON NS PAWTUCKET,41.846784,-71.354199
19680,SMITH OPP BRIGHTWOOD,41.847151,-71.454208
19685,SMITH OPP MT PLEASANT,41.847652,-71.455068
19695,DOUGLAS OPP 623 DOUGLAS AVE,41.847023,-71.430196
19700,SILVER SPRING NS BRANCH,41.847729,-71.414796
19710,WOONASQUATUCKET AT 463 WOONASQUATUCKET,41.850635,-71.479841
19725,BLACKSTONE AT SWAN PT CEMETARY,41.847884,-71.386777
19735,BLACKSTONE AT 420 BLACKSTONE,41.847545,-71.387336
19755,N MAIN OPP DEXTERDALE,41.84824,-71.404364
19760,DOUGLAS FS MESSINA,41.848785,-71.432029
19765,DOUGLAS FS DAMON,41.848951,-71.432435
19770,GEORGE WATERMAN NS ALLENDALE,41.850068,-71.486801
19780,SMITH FS HIGH SERVICE,41.848859,-71.458167
19785,WOONASQUATUCKET NS ROCKWELL,41.848909,-71.478662
19790,SILVER SPRING OPP ASHTON,41.848711,-71.414138
19800,WOONASQUATUCKET AT 545 WOONASQUATUCKET,41.852413,-71.480901
19805,SILVER SPRING FS ASHTON,41.848645,-71.414263
19810,BLACKSTONE FS HARTFORD,41.848629,-71.387392
19815,BLACKSTONE AT POLE 105,41.850485,-71.386864
19825,HOPE FS LAURISTON,41.848469,-71.395349
19830,HOPE FS LAURISTON,41.849209,-71.394863
19845,GEORGE WATERMAN NS 311 GEORGE WATERMAN,41.850399,-71.486622
19850,SMITH FS WELLESLEY,41.849683,-71.460309
19855,ADMIRAL NS SEAMANS,41.849828,-71.44042
19860,N MAIN AT 1052 N MAIN,41.849464,-71.403588
19865,ADMIRAL NS RIVER,41.849323,-71.439287
19870,NEWPORT NS ELMWOOD,41.84847,-71.354419
19875,NEWPORT OPP ELMWOOD,41.849187,-71.354503
19880,DOUGLAS FS SHERWOOD,41.849658,-71.433109
19885,SMITH OPP WELLESLEY,41.849621,-71.460466
19900,SILVER SPRING NS GRAFTON,41.849999,-71.413536
19905,BLACKSTONE FS HARWICH,41.85,-71.387436
19915,THIRD STREET (R-LINE),41.851356,-71.402151
19920,ADMIRAL NS CRANDALL,41.849607,-71.439771
19925,CHARLES NS BRANCH,41.849999,-71.419874
19930,BLACKSTONE AT POLE 107,41.85142,-71.387072
19935,CHARLES FS BRANCH,41.850187,-71.420061
19940,ADMIRAL NS ZELLA,41.849776,-71.4404
19945,DOUGLAS OPP SHERWOOD,41.849456,-71.432987
19950,WOONASQUATUCKET OPP 511 WOONASQUATUCKET,41.850788,-71.480143
19955,GEORGE WATERMAN AT FAMILY AUTO SALES,41.852944,-71.487702
19965,DOUGLAS NS EASTON,41.850683,-71.434419
19970,SMITH NS HOMEWOOD,41.8505,-71.462538
19975,DOUGLAS OPP VEAZIE,41.850532,-71.434127
19980,GEORGE WATERMAN OPP MILTON,41.852619,-71.48732
19985,SMITH NS LOOKOUT,41.850727,-71.462697
19995,N MAIN OPP 2ND,41.850704,-71.402838
20000,HOPE FS OVERHILL,41.851161,-71.39401
20010,WOONASQUATUCKET AT 542 WOONASQUATUCKET,41.852328,-71.480935
20015,HOPE NS OVERHILL,41.851099,-71.393934
20020,ADMIRAL FS SHARON,41.850648,-71.442809
20030,ADMIRAL NS PHEBE,41.850713,-71.442831
20055,NEWPORT OPP VISTA,41.851535,-71.354331
20065,CHARLES BETWEEN BRANCH & HAWKINS,41.850917,-71.420141
20085,SILVER SPRING NS FELIX MURANDO,41.85141,-71.413034
20090,ADMIRAL NS MIDDLE,41.851727,-71.444787
20095,NEWPORT NS ROGER WILLIAMS,41.852612,-71.354411
20105,SILVER SPRING NS NORTHROP,41.85198,-71.413024
20115,DOUGLAS AT 860 DOUGLAS,41.851827,-71.435683
20120,ADMIRAL FS WINONA,41.85217,-71.445418
20125,SMITH OPP TURCONE,41.852264,-71.466026
20135,WOONASQUATUCKET OPP STEVENS,41.85461,-71.48191
20150,SMITH FS TURCONE,41.852407,-71.466114
20155,GEORGE WATERMAN OPP BRADFORD,41.854204,-71.488097
20160,ADMIRAL OPP WINONA,41.852269,-71.445388
20175,GEORGE WATERMAN NS GANO,41.85466,-71.488457
20180,DOUGLAS NS RIVER,41.852565,-71.436778
20185,DOUGLAS OPP CONCANNON,41.853241,-71.437912
20195,SILVER SPRING OPP LEDGE,41.853443,-71.412502
20215,CHARLES FS NAHANT,41.852709,-71.420385
20220,SILVER SPRING NS LEDGE,41.853691,-71.412534
20235,ADMIRAL FS GENERAL,41.853383,-71.446185
20245,WOONASQUATUCKET NS GEORGE,41.855439,-71.482314
20250,HOPE FS NORTH,41.853601,-71.39269
20255,DOUGLAS AT 933 DOUGLAS,41.853277,-71.437849
20260,BRANCH NS WOODWARD,41.853538,-71.427839
20275,CHARLES FS LEDGE,41.853219,-71.420345
20280,HOPE NS 9TH,41.853718,-71.392814
20285,GEORGE WATERMAN NS AMBER,41.856528,-71.489295
20290,DOUGLAS NS SEAMANS,41.853818,-71.438833
20295,BRANCH FS VANDEWATER,41.853815,-71.428987
20300,DOUGLAS NS SEAMANS,41.853902,-71.438825
20305,SMITH NS LANTANGE,41.854195,-71.468828
20320,ADMIRAL NS WANSKUCK,41.853375,-71.44627
20330,SMITH NS WHIPPLE,41.854331,-71.470645
20335,DOUGLAS OPP HENRIETTA,41.854374,-71.439664
20345,SMITH OPP WHIPPLE,41.854448,-71.470695
20350,BRANCH OPP HUGO,41.854418,-71.431619
20360,BRANCH OPP 725 BRANCH,41.854116,-71.430806
20370,CHARLES OPP AMBOY,41.855558,-71.420856
20380,SMITH FS ATLANTIC,41.854556,-71.473291
20385,NEWPORT OPP TAYLOR,41.854926,-71.354448
20390,EAST AVE FS LAFAYETTE,41.85789,-71.390621
20395,SMITH NS GAINER,41.85471,-71.47353
20400,BRANCH FS VEAZIE,41.854626,-71.434352
20420,BRANCH NS VEAZIE,41.854749,-71.434604
20430,WOONASQUATUCKET FS STEVENS,41.854698,-71.482068
20435,WOONASQUATUCKET AT 649 WOONASQUATUCKET,41.856344,-71.482683
20445,SMITH NS FENWAY,41.855185,-71.476828
20465,BRANCH NS 971 BRANCH,41.855137,-71.438082
20470,BRANCH AT 962 BRANCH,41.855083,-71.438558
20475,NINTH STREET (R-LINE),41.854789,-71.400234
20480,SILVER SPRING NS SWIFT,41.855719,-71.411225
20490,SMITH OPP FENWAY,41.855285,-71.476757
20505,HIGH SERVICE NS FATIMA,41.855898,-71.458544
20515,NEWPORT OPP NEW RD,41.855793,-71.354399
20525,SILVER SPRING OPP SWIFT,41.855303,-71.41138
20530,SMITHFIELD FS SHAWS MARKET,41.855335,-71.447559
20535,NINTH STREET,41.85492,-71.400502
20540,DOUGLAS OPP LUBEC,41.855742,-71.441595
20545,DOUGLAS NS LUBEC,41.855799,-71.44187
20555,SMITH FS FERNCLIFF,41.855788,-71.47874
20560,SMITH NS FERNCLIFF,41.855859,-71.478705
20565,GEORGE WATERMAN NS SWAN,41.857548,-71.489386
20575,CHARLES NS AMBOY,41.855286,-71.42066
20600,SMITHFIELD OPP PALOU,41.85618,-71.450736
20610,N MAIN FS ANN MARY,41.855833,-71.40008
20615,HOPE NS CHACE,41.856289,-71.391505
20620,SMITHFIELD NS PALOU,41.856235,-71.450231
20625,DOUGLAS AT 1115 DOUGLAS,41.856398,-71.442671
20640,HIGH SERVICE AT FATIMA HOSPITAL,41.856103,-71.458739
20665,SHAW S MARKET,41.856124,-71.446988
20670,GEORGE WATERMAN OPP 503 GEORGE WATERMAN,41.857311,-71.489594
20675,HIGH SERVICE NS STANLEY,41.857461,-71.460974
20685,CHARLES OPP HOGAN,41.857093,-71.421048
20720,SMITH NS WOONASQUATUCKET,41.856789,-71.482333
20725,SMITHFIELD OPP SALEM,41.857239,-71.45424
20730,SMITH NS STEERE,41.857211,-71.483634
20740,SMITHFIELD NS SALEM,41.857443,-71.454393
20745,DOUGLAS OPP 1159 DOUGLAS AVE,41.857435,-71.444422
20750,DOUGLAS AT 1159 DOUGLAS,41.857353,-71.444125
20755,EAST AVE NS LAFAYETTE,41.857854,-71.390713
20760,GEORGE WATERMAN OPP 338 GEORGE WATERMAN,41.859184,-71.488833
20770,SMITH OPP CENTERDALE BYPASS,41.856732,-71.482428
20780,SMITHFIELD AT 250 SMITHFIELD,41.85834,-71.457513
20785,PAWTUCKET FS PIDGE,41.858436,-71.398398
20795,SILVER SPRING NS COLFAX,41.858634,-71.410817
20815,SMITHFIELD OPP 250 SMITHFIELD,41.858346,-71.457223
20830,MINERAL SPRING OPP SWEET,41.858415,-71.481666
20835,NEWPORT NS VERMONT,41.857929,-71.354537
20840,MINERAL SPRING FS THOMAS,41.858375,-71.482404
20845,SMITH AT 2048 SMITH,41.858174,-71.485611
20850,DOUGLAS OPP SHAW'S ENTRANCE,41.858762,-71.446224
20860,MINERAL SPRING OPP JOSLIN,41.858715,-71.479988
20865,NARRAGANSETT PARK NS BALLYS,41.858248,-71.350541
20870,CHARLES FS RAPHAEL,41.859401,-71.421744
20875,SMITHFIELD NS POWER,41.860128,-71.411327
20880,MINERAL SPRING FS JOSLIN,41.858739,-71.480512
20885,CHARLES FS LEO,41.859615,-71.421988
20900,MINERAL SPRING OPP BROWN,41.858989,-71.477677
20910,MINERAL SPRING OPP 2148 MINERAL SPRING,41.858908,-71.478657
20915,GRENVILLE STREET (R-LINE),41.859039,-71.39887
20920,PAWTUCKET NS CARVER,41.859412,-71.397663
20930,MINERAL SPRING NS S BROOKSIDE,41.859251,-71.476351
20935,GEORGE WATERMAN AT 536 GEORGE WATERMAN,41.858502,-71.489235
20940,MINERAL SPRING NS BROOKSIDE,41.859366,-71.475921
20950,NEWPORT AT 24 NEWPORT,41.860066,-71.354598
20960,EAST AVE FS PROGRESS,41.860628,-71.389264
20965,MINERAL SPRING FS RAYMOND,41.859418,-71.474257
20970,MINERAL SPRING NS REYNOLDS,41.859581,-71.4741
20975,DOUGLAS FS CUSHING,41.859728,-71.447797
20980,MINERAL SPRING NS S PLEASANT,41.859574,-71.472921
20990,MINERAL SPRING FS CENTRAL,41.859803,-71.472044
21000,WATERMAN NS CENTERDALE BYPASS,41.859477,-71.486228
21005,EAST AVE NS GLENWOOD,41.859782,-71.389806
21010,SMITHFIELD AT 126 SMITHFIELD,41.86241,-71.411856
21030,MINERAL SPRING OPP MCGUIRE,41.859781,-71.471001
21045,MINERAL SPRING NS MCGUIRE,41.859975,-71.47075
21050,NEWPORT FS BEVERAGE HILL,41.861232,-71.354398
21055,BEVERAGE HILL NS DEWEY,41.860842,-71.358905
21060,BEVERAGE HILL NS PROSPECT,41.860747,-71.367665
21065,BEVERAGE HILL NS CHARLETON,41.860658,-71.371019
21070,BEVERAGE HILL FS WOODHAVEN,41.860876,-71.356386
21075,BEVERAGE HILL NS WILLISTON,41.8609,-71.355289
21080,BEVERAGE HILL NS DODGE,41.860699,-71.367446
21090,BEVERAGE HILL AT 368 BEVERAGE HILL,41.860838,-71.361213
21095,GRENVILLE STREET (R-LINE),41.858771,-71.398996
21100,SUNSET AND BOURNE,41.861199,-71.469188
21110,PAWTUCKET NS DARTMOUTH,41.861257,-71.395842
21115,MINERAL SPRING OPP SUNSET,41.860168,-71.468757
21120,MINERAL SPRING OPP 1860 MINERAL SPRING,41.861043,-71.464644
21125,MINERAL SPRING OPP MARILYN,41.860827,-71.465257
21130,DOUGLAS AT 1307 DOUGLAS,41.860992,-71.449599
21140,WATERMAN OPP HELEN,41.860972,-71.487048
21155,WATERMAN NS HELEN,41.861016,-71.486917
21160,MINERAL SPRING MIDBLOCK SMITHFIELD RD,41.861537,-71.461965
21195,MINERAL SPRING AT 1830 MINERAL SPRING,41.861493,-71.46187
21200,CHARLES NS BROWN,41.86192,-71.422653
21205,MINERAL SPRING NS HAWTHORNE,41.862053,-71.459147
21215,CHARLES FS ROOSEVELT,41.861825,-71.422846
21225,SMITHFIELD OPP 114 SMITHFIELD,41.862238,-71.411707
21235,PROSPECT FS BEVERAGE HILL,41.861143,-71.368721
21240,MINERAL SPRING AT 1800 MINERAL SPRING,41.862233,-71.457557
21245,DOUGLAS FS SALEM,41.861987,-71.451225
21250,HOPE ARTISTE VILLAGE (R-LINE),41.863,-71.399278
21270,MINERAL SPRING NS TIMBER,41.862372,-71.457578
21290,HOPE ARTISTE VILLAGE (R-LINE),41.862648,-71.39916
21295,MINERAL SPRING AT 1704 MINERAL SPRING,41.863029,-71.453914
21300,EAST AVE OPP SAYLES,41.862704,-71.388231
21305,PAWTUCKET NS WALTHAM,41.863153,-71.39414
21310,WATERMAN OPP SAWIN,41.862861,-71.487981
21315,MINERAL SPRING FS ANDOVER,41.862895,-71.455111
21320,MINERAL SPRING FS DOUGLAS,41.863477,-71.452038
21330,WATERMAN NS SAWIN,41.862898,-71.48792
21335,EAST AVE NS SAYLES,41.863202,-71.388099
21340,DOUGLAS FS MINERAL SPRING,41.862969,-71.452688
21345,CHARLES FS HURDIS,41.863292,-71.42331
21350,MINERAL SPRING FS LEE,41.863974,-71.450503
21355,CHARLES NS MACARI,41.863427,-71.423222
21360,DOUGLAS NS MINERAL SPRING,41.862981,-71.452419
21375,PROSPECT AT 560 PROSPECT,41.862149,-71.369841
21380,PAWTUCKET NS ANTHONY,41.864217,-71.393321
21385,SMITHFIELD OPP PIAVE,41.864033,-71.412144
21390,SMITHFIELD NS PIAVE,41.864124,-71.412297
21395,PAWTUCKET NS SAYLES,41.864747,-71.392707
21435,DOUGLAS AT 1445 DOUGLAS,41.864542,-71.45484
21445,DOUGLAS OPP AMELIA,41.86481,-71.455455
21450,SAYLES AVENUE (R-LINE),41.865187,-71.399179
21455,SAYLES AVENUE (R-LINE),41.8651,-71.39929
21460,PROSPECT AT 500 PROSPECT,41.863071,-71.370773
21465,PAWTUCKET NS BOUTWELL,41.865414,-71.392198
21475,EAST AVE NS MANNING,41.865317,-71.3873
21495,MINERAL SPRING NS DAVID,41.865769,-71.443295
21500,MINERAL SPRING NS COLEMAN,41.865146,-71.445561
21510,WATERMAN FS 146A WATERMAN,41.864272,-71.488699
21520,DOUGLAS AT 1500 DOUGLAS,41.865724,-71.456875
21530,PROSPECT NS RHODE ISLAND,41.864627,-71.372424
21545,PAWTUCKET FS DUNNELL,41.866,-71.391551
21550,CHARLES FS OBED,41.866278,-71.424406
21555,PAWTUCKET NS KNOWLES,41.866528,-71.39122
21560,MINERAL SPRING OPP POPE,41.866281,-71.441789
21565,WATERMAN NS GREYSTONE,41.866381,-71.49031
21570,CHARLES NS OBED,41.866506,-71.424347
21575,MINERAL SPRING FS POPE,41.86632,-71.442137
21585,DOUGLAS OPP FITZHUGH,41.866769,-71.45827
21590,DOUGLAS PIKE FS FITZHUGH,41.866642,-71.458267
21610,MINERAL SPRING AT 1388 MINERAL SPRING,41.866923,-71.439761
21615,MINERAL SPRING NS WOODWARD,41.866935,-71.440243
21630,PROSPECT NS LINWOOD,41.867512,-71.375285
21635,PAWTUCKET NS WALDO,41.867401,-71.390231
21640,PAWTUCKET OPP WALDO,41.867806,-71.390039
21645,MINERAL SPRING OPP 1350 MINERAL SPRING,41.867635,-71.437307
21650,EAST AVE FS HARVEY,41.86817,-71.387099
21655,MINERAL SPRING FS PALM,41.867772,-71.436269
21665,SCHOOL OPP ROSEWOOD,41.869403,-71.379187
21670,CHARLES FS MINERAL SPRING,41.868037,-71.425087
21695,EAST AVE OPP HARVEY,41.867824,-71.38725
21705,MINERAL SPRING AT 1243 MINERAL SPRING,41.868302,-71.434107
21720,CHARLES NS MINERAL SPRING,41.868187,-71.424994
21735,MINERAL SPRING OPP CLEVELAND,41.868593,-71.424397
21740,PAWTUCKET AT 171 PAWTUCKET,41.869358,-71.38862
21745,MINERAL SPRING NS IVAN,41.86844,-71.432721
21750,WATERMAN FS ADAMS,41.868089,-71.491574
21760,PROSPECT FS ENGLEWOOD,41.868306,-71.375984
21765,MINERAL SPRING OPP ELENA,41.868329,-71.434629
21770,MINERAL SPRING OPP IVAN,41.868582,-71.432724
21780,MINERAL SPRING FS CLEVELAND,41.868856,-71.424064
21805,SMITHFIELD FS NATHANIEL,41.867488,-71.412983
21810,MINERAL SPRING FS CAMPBELL,41.869348,-71.42195
21815,DOUGLAS NS TANGLEWOOD,41.869025,-71.46163
21820,SMITHFIELD OPP GROSVENOR,41.867452,-71.412897
21830,WHITMAN STREET (R-LINE),41.869395,-71.397408
21835,STOP&SHOP (PUTNAM PIKE - SMITHFIELD),41.868633,-71.532351
21840,MINERAL SPRING NS DORA,41.86969,-71.420053
21845,NEWPORT NS EDENDALE,41.870848,-71.354295
21850,PAWTUCKET NS RANDALL,41.869321,-71.388527
21855,MINERAL SPRING FS DORMAN,41.869755,-71.420146
21860,WATERMAN NS GLADSTONE,41.869702,-71.49272
21865,DOUGLAS OPP TANGLEWOOD,41.868965,-71.46133
21870,WHITMAN STREET (R-LINE),41.869718,-71.397015
21880,COLUMBUS NS YORK,41.870389,-71.364709
21885,COLUMBUS NS MEMORIAL,41.870488,-71.367298
21900,MINERAL SPRING FS POWER,41.870386,-71.417104
21930,PUTNAM PIKE OPP TACO BELL,41.870076,-71.528222
21940,PUTNAM PIKE AT 458 PUTNAM PIKE,41.870127,-71.535354
21945,GEORGE OPP DELANY,41.871099,-71.387646
21950,PUTNAM PIKE NS SANDERSON,41.870177,-71.53166
21960,CHARLES AT 1090 CHARLES,41.869493,-71.425691
21965,PUTNAM PIKE OPP DANECROFT,41.870086,-71.539093
21985,CHARLES NS FRANKLIN,41.87053,-71.426353
21990,COLUMBUS OPP MEMORIAL,41.870543,-71.367138
21995,PUTNAM PIKE NS MAPLECREST,41.870201,-71.541834
22000,MINERAL SPRING NS POWER,41.870453,-71.417255
22005,PUTNAM PIKE OPP 458 PUTNAM PIKE,41.870292,-71.534791
22015,COLUMBUS NS HAZARD,41.870803,-71.368968
22020,PUTNAM PIKE OPP MAPLECREST,41.870316,-71.54171
22025,SCHOOL OPP POND,41.870652,-71.380073
22030,PUTNAM PIKE FS SANDERSON,41.8703,-71.531431
22040,PUTNAM PIKE AT APPLE VALLEY MALL,41.870358,-71.529326
22045,PUTNAM PIKE NS CRESTVIEW,41.870336,-71.545237
22050,SMITHFIELD FS W LAWN,41.870641,-71.413589
22060,DOUGLAS OPP WENSCOTT,41.870681,-71.463736
22065,COLUMBUS OPP ORTH,41.871036,-71.369374
22070,WATERMAN NS MINORU,41.870975,-71.493638
22075,MINERAL SPRING FS OVERLAND,41.870785,-71.415943
22080,MINERAL SPRING NS SMITHFIELD,41.871113,-71.414095
22090,CHARLES OPP GILLEN,41.871354,-71.42756
22095,PUTNAM PIKE AT 566 PUTNAM PIKE,41.870853,-71.54997
22115,CHARLES NS GILLEN,41.871445,-71.427501
22120,GEORGE NS PAWTUCKET,41.870819,-71.387978
22135,MINERAL SPRING NS FAIRLAWN,41.871987,-71.410519
22150,PUTNAM PIKE NS PLEASANT VIEW,41.870961,-71.549715
22155,PUTNAM PIKE NS SMITH AVE,41.871352,-71.552788
22170,PUTNAM PIKE AT 595 PUTNAM PIKE,41.871426,-71.552353
22180,DOUGLAS NS WENSCOTT,41.870849,-71.464101
22190,PROSPECT OPP CHESTNUT,41.869531,-71.377067
22200,GEORGE FS CEDAR,41.874083,-71.38732
22205,MINERAL SPRING FS FAIRLAWN,41.872075,-71.410744
22210,CHARLES OPP BORAH,41.872255,-71.429205
22215,CHARLES NS BORAH,41.87231,-71.429157
22220,GEORGE FS GRACE,41.87189,-71.387816
22230,WATERMAN OPP ARNOLD,41.872356,-71.494324
22235,COLUMBUS FS POND,41.87196,-71.371444
22240,WATERMAN NS ARNOLD,41.872289,-71.4944
22265,POWER NS ANDERTON,41.872917,-71.419134
22280,MINERAL SPRING OPP 545 MINERAL SPRING,41.873001,-71.407059
22285,MINERAL SPRING AT 560 MINERAL SPRING,41.872948,-71.407017
22290,PROSPECT FS MEADOW,41.872127,-71.379358
22310,PUTNAM PIKE AT ST PHILLIPS SCHOOL,41.873668,-71.558747
22320,PUTNAM PIKE OPP ST PHILLIPS SCHOOL,41.873744,-71.558677
22325,POWER FS ANDERTON,41.872633,-71.419204
22345,MINERAL SPRING at 400 MINERAL SPRING,41.873768,-71.40214
22360,WATERMAN NS CAMP,41.873587,-71.495504
22380,MINERAL SPRING FS HOPE,41.873876,-71.402044
22400,POWER NS ORIOLE,41.873817,-71.419175
22405,MINERAL SPRING OPP HICKS,41.874123,-71.3999
22425,MINERAL SPRING AT SAMUEL SLATER SCHOOL,41.874233,-71.400294
22445,WATERMAN OPP 304 WATERMAN,41.873859,-71.495685
22450,SUMMIT NS DIVISION,41.873915,-71.378356
22465,POWER FS OAKDALE,41.87483,-71.419317
22470,ESMOND NS PENBRYN,41.874759,-71.504445
22475,MINERAL SPRING NS FRANKLIN,41.874846,-71.396269
22480,MINERAL SPRING FS BAGLEY,41.874762,-71.396122
22485,PUTNAM PIKE NS ARTHUR,41.874683,-71.562504
22495,CHARLES OPP MINER,41.875303,-71.433898
22500,COLLYER PARK (R-LINE),41.875006,-71.392386
22505,PUTNAM PIKE OPP ARTHUR,41.874687,-71.562163
22510,CHARLES NS MINER,41.875292,-71.433942
22535,GEORGE NS EAST AVE EXT.,41.875143,-71.386907
22540,MINERAL SPRING NS MAIN,41.875442,-71.39196
22545,MINERAL SPRING FS MAIN,41.875571,-71.391695
22585,ARMISTICE NS BROOKDALE,41.876221,-71.343218
22590,ARMISTICE NS FELSMERE,41.87664,-71.34545
22600,POWER NS CHANDLER,41.876283,-71.418842
22605,ESMOND FS HILL,41.874753,-71.504356
22610,POWER FS CHANDLER,41.876422,-71.418618
22615,ESMOND NS THORNTON,41.876284,-71.503248
22645,WALCOTT FS SUMMIT,41.87663,-71.37902
22650,WEEDEN NS HANCOCK,41.876919,-71.401585
22655,ARMISTICE FS DAGGETT,41.876948,-71.346205
22665,WEEDEN NS STURMAN,41.876993,-71.401574
22670,WALCOTT NS ARLINGTON,41.876934,-71.377349
22680,WEEDEN OPP MOSHASSUCK,41.877156,-71.405481
22685,ARMISTICE AT 664 ARMISTICE,41.877304,-71.348098
22695,WEEDEN NS LEONARD JENARD,41.877102,-71.40454
22720,MAIN FS COMMERCE,41.876842,-71.388464
22725,WALCOTT FS GROVE,41.87705,-71.37719
22745,EAST AVE EXT NS MAIN,41.876682,-71.384578
22750,WALCOTT FS MAYNARD,41.8772,-71.37626
22760,ARMISTICE NS SLATER PARK,41.877486,-71.349764
22765,PAWTUCKET TRANSIT CTR (TRANSIT CTR SIDE),41.877298,-71.383417
22780,WEEDEN OPP RESERVOIR,41.877669,-71.410348
22785,WATERMAN AVE OPP BENNY'S MAIN OFFICE,41.876455,-71.498835
22790,ARMISTICE FS ORIENT,41.877678,-71.350005
22795,PUTNAM PIKE FS W GREENVILLE,41.877892,-71.571859
22805,WEEDEN NS HAZEL,41.877574,-71.408858
22810,PUTNAM PIKE NS W GREENVILLE,41.877571,-71.570921
22815,ARMISTICE NS GREENSLITT,41.877931,-71.351963
22820,ARMISTICE NS MALVERN,41.878077,-71.351962
22825,PUTNAM PIKE OPP WINDY HILL,41.882515,-71.580512
22835,WEEDEN NS ST LUKES CHURCH,41.878054,-71.412352
22840,PUTNAM PIKE NS 735 PUTNAM PIKE,41.880603,-71.577826
22850,WEEDEN NS JANE,41.877792,-71.410969
22855,ARMISTICE FS NEWPORT,41.878306,-71.354075
22880,WEEDEN FS SMITHFIELD,41.878608,-71.414679
22885,ARMISTICE NS NEWPORT,41.878437,-71.353689
22895,NEWPORT AT 872 NEWPORT,41.879648,-71.354333
22905,WEEDEN NS POWER,41.878361,-71.417417
22910,WEEDEN NS SMITHFIELD,41.878676,-71.414834
22915,NEWPORT NS CARTER,41.881863,-71.354089
22925,ARMISTICE FS LITTLEFIELD,41.878732,-71.355321
22930,RT 246 OPP WOODWARD,41.878537,-71.435484
22935,WATERMAN OPP 349 WATERMAN,41.87821,-71.500896
22945,WATERMAN OPP ESMOND,41.878565,-71.501095
22950,ARMISTICE NS BLOOMFIELD,41.878918,-71.357135
22955,DEXTER NS BAYLEY,41.878393,-71.387495
22960,RT 246 FS WOODWARD,41.878403,-71.435553
22965,DEXTER OPP ANDREW FERLAND,41.879854,-71.388846
22970,GOFF NS DEXTER,41.87851,-71.388262
22980,ARMISTICE NS N BEND,41.8791,-71.372425
22981,ARMISTICE FS WALCOTT,41.879033,-71.372465
22990,ARMISTICE NS PERRIN,41.879073,-71.357044
22995,ARMISTICE NS ASHTON,41.879326,-71.371181
23000,ARMISTICE OPP ASHTON,41.879519,-71.370735
23005,ARMISTICE NS ROSEMONT,41.879563,-71.360209
23015,ARMISTICE NS BOOTH,41.87952,-71.359097
23020,BROAD NS GOFF,41.880283,-71.386566
23030,BROAD FS EXCHANGE,41.880101,-71.386345
23035,ARMISTICE FS SCHOEFIELD,41.879768,-71.369401
23050,ARMISTICE OPP SCHOFIELD,41.879811,-71.36965
23055,ARMISTICE FS ROSEMONT,41.879729,-71.360328
23070,GOFF FS BROAD,41.879593,-71.386718
23075,ROOSEVELT OPP CITY HALL,41.8791,-71.382599
23090,ARMISTICE AT 209 ARMISTICE,41.88002,-71.368329
23100,LONSDALE FS WEEDEN,41.877767,-71.399788
23125,EXCHANGE FS HIGH,41.879818,-71.383472
23130,EXCHANGE NS MONTGOMERY,41.879959,-71.384874
23145,ARMISTICE OPP 209 ARMISTICE,41.88025,-71.367845
23150,EXCHANGE NS HIGH,41.879979,-71.383717
23160,ARMISTICE FS ALDEN,41.880381,-71.363851
23165,ARMISTICE OPP 270 ARMISTICE,41.880592,-71.365972
23170,ARMISTICE FS GEORGE BENNETT,41.880634,-71.366218
23215,DEXTER NS BARTON,41.88144,-71.390929
23220,BROADWAY NS BLACKSTONE,41.881816,-71.377789
23225,DOUGLAS PIKE OPP 80 DOUGLAS PIKE,41.878174,-71.472373
23250,DEXTER OPP CONGRESS,41.882671,-71.392294
23270,BROAD FS BARTON,41.882687,-71.386555
23280,RT 246 FS COBBLE HILL RD,41.884246,-71.438806
23285,LONSDALE NS RAND,41.884381,-71.400228
23290,RT 246 FS KENDALL,41.884601,-71.439123
23295,BROADWAY NS EXCHANGE,41.880154,-71.378611
23320,DEXTER FS CENTRAL,41.884125,-71.394152
23325,NEWPORT FS CARTER,41.881937,-71.354244
23330,BROADWAY AT 340 BROADWAY,41.883436,-71.377023
23335,DEXTER NS RAND,41.88477,-71.394616
23345,BROAD NS CLAY,41.884229,-71.386952
23355,LONSDALE NS PARKER,41.885977,-71.401212
23370,NEWPORT NS SWEET,41.884819,-71.354061
23375,BROAD NS JENKS,41.884483,-71.386823
23410,DEXTER AT SPARKYS,41.885114,-71.395316
23445,DEXTER NS RICHARDSON,41.885794,-71.396107
23450,CENTRAL BETWEEN FREEMAN & KENYON,41.885408,-71.365929
23455,PUTNAM PIKE AT 66 PUTNAM PIKE,41.884631,-71.584248
23460,CENTRAL FS TWEED,41.887311,-71.356538
23470,CENTRAL NS YORK,41.886124,-71.36156
23475,CENTRAL NS MENDON,41.88568,-71.363992
23480,NEWPORT NS CENTRAL,41.887451,-71.354047
23485,BROADWAY FS LAUREL,41.885099,-71.376176
23490,PUTNAM PIKE OPP LAKESIDE MOTEL,41.884828,-71.584426
23495,BROADWAY OPP LAUREL,41.885107,-71.375936
23505,CENTRAL NS HARDING,41.886306,-71.361456
23510,BROAD OPP PACIFIC,41.886722,-71.38722
23530,BROAD NS PACIFIC,41.886579,-71.387056
23540,DEXTER NS COWDEN,41.887238,-71.397433
23545,CENTRAL NS MAKIN,41.886854,-71.358979
23555,BROADWAY FS WOODBINE,41.8868,-71.375201
23560,DEXTER NS HEDLY,41.88757,-71.397865
23565,BROADWAY NS WOODBINE,41.886645,-71.375162
23575,NEWPORT NS ROBINSON,41.885713,-71.354203
23585,CENTRAL NS TWEED,41.887476,-71.356493
23590,PUTNAM PIKE OPP 199 PUTNAM PIKE,41.887686,-71.59616
23600,CENTRAL FS GRAND,41.888413,-71.352052
23610,CENTRAL NS NEWPORT,41.887832,-71.354455
23620,BROADWAY OPP LILAC,41.888453,-71.374291
23625,BROAD FS SACRED HEART,41.888514,-71.387199
23635,LONSDALE NS WEST HUNT,41.888861,-71.401974
23640,"RT 246 FS TWIN RIVER CASINO, LOUISQUISSET ENTRANCE",41.887547,-71.440696
23645,DEXTER NS CROSSMAN,41.888798,-71.399273
23650,PUTNAM PIKE AT 185 PUTNAM PIKE,41.887603,-71.595583
23655,CENTRAL NS LIVERPOOL,41.888965,-71.349708
23660,BROAD OPP SACRED HEART,41.888235,-71.387343
23665,TWIN RIVER CASINO,41.887,-71.447213
23670,CENTRAL NS GRAND,41.88852,-71.352024
23685,DEXTER NS W HUNT,41.889718,-71.40044
23690,CENTRAL NS DAGGETT,41.889467,-71.347534
23695,BROADWAY OPP MARGARET,41.888203,-71.374518
23700,DEXTER FS W HUNT,41.889817,-71.400477
23705,CENTRAL NS DRAPER,41.889245,-71.34907
23715,CENTRAL OPP FARNUM,41.890122,-71.344859
23735,CENTRAL NS CLARNER,41.889855,-71.346532
23740,BROADWAY NS EAST,41.890043,-71.373403
23745,BROADWAY FS EAST,41.89039,-71.373398
23750,CENTRAL FS BRADLEY,41.890344,-71.344476
23760,BROAD NS COWDEN,41.891385,-71.387483
23765,PUTNAM PIKE AT HARMONY MARKET PLACE,41.895079,-71.612363
23775,LONSDALE AT RANDOM HOUSE,41.891464,-71.402567
23790,LONSDALE OPP RICHLAND,41.894072,-71.404086
23800,BROADWAY NS GEORGE BENNETT,41.89208,-71.372363
23850,BENEFIT NS COTTAGE,41.892344,-71.35768
23860,BENEFIT OPP ADIN,41.892502,-71.361997
23865,BROAD AT 995 BROAD,41.893566,-71.387737
23870,BENEFIT NS EMORY,41.892446,-71.35787
23875,BENEFIT NS MENDON,41.892541,-71.364545
23890,BENEFIT NS BATES,41.892604,-71.368042
23915,LONSDALE OPP 991 LONSDALE,41.891324,-71.402634
23920,BENEFIT FS BROADWAY,41.892639,-71.370851
23935,BENEFIT NS BROADWAY,41.89273,-71.371491
23945,BENEFIT FS BATES,41.892695,-71.368124
23950,BENEFIT OPP 121 BENEFIT,41.892666,-71.366148
23955,BENEFIT OPP 71 BENEFIT,41.892691,-71.368646
23970,LONSDALE OPP BINFORD,41.893176,-71.403394
23975,BROAD AT 100 BROAD,41.893481,-71.387902
23985,RT 246 NS TWIN RIVER RD,41.893911,-71.446767
23995,RT 246 NS 1575 OLD LOUISQUISSET (state police),41.887861,-71.440832
24015,LONSDALE NS RICHLAND,41.894087,-71.404033
24040,PUTNAM PIKE NS ABSALONA HILL RD,41.896207,-71.617391
24045,DOUGLAS PIKE NS WHIPPLE,41.889111,-71.488886
24060,PUTNAM PIKE NS GENTLEMAN FARMER,41.897236,-71.629107
24065,PUTNAM PIKE OPP ABSALONA HILL RD,41.896106,-71.617496
24075,BROAD NS HUNT,41.896559,-71.388278
24080,BROAD AT 1190 BROAD,41.896049,-71.388387
24090,RT 246 OPP CHASE,41.896497,-71.449495
24120,BROAD FS HIGH,41.898552,-71.389125
24155,CCRI (LINCOLN CAMPUS),41.899562,-71.453397
24180,RT 246 FS ANNE,41.899194,-71.450685
24205,BROAD OPP CURRIER PLAYLOT,41.90106,-71.390954
24215,JENCKES HILL OPP DAVIES VOCATIONAL,41.902856,-71.455802
24216,JENCKES HILL AT DAVIES VOCATIONAL ENT,41.902816,-71.455809
24220,BROAD NS CHAPEL,41.902407,-71.391447
24225,RT 246 FS JENCKES HILL,41.90146,-71.451108
24230,RT 246 NS BREAKNECK HILL,41.901297,-71.450957
24285,PUTNAM PIKE OPP GENTLEMENS FARMER,41.897502,-71.629654
24290,BROAD OPP 232 BROAD,41.904349,-71.392141
24295,PUTNAM PIKE OPP PINEWOOD PARK,41.904951,-71.647324
24310,PUTNAM PIKE NS PINEWOOD PARK,41.903629,-71.635914
24320,PUTNAM PIKE FS LEE,41.9051,-71.650989
24330,PUTNAM PIKE AT 895 PUTNAM PIKE,41.905213,-71.651517
24350,BROAD NS LUSITANIA,41.900568,-71.390929
24385,BROAD NS CHURCH,41.90694,-71.39307
24405,BROAD AT 126 BROAD,41.902339,-71.391516
24410,PUTNAM PIKE AT CVS PHARMACY,41.907594,-71.666637
24415,BROAD NS MAPLE,41.90412,-71.392181
24430,PUTNAM PIKE FS CHESTNUT HILL,41.908684,-71.667703
24435,BROAD NS LAFAYETTE,41.90834,-71.393731
24440,PUTNAM PIKE FS DOUGLAS HOOK,41.912789,-71.669082
24445,PUTNAM PIKE OPP 1109 PUTNAM PIKE,41.910062,-71.668357
24455,BROAD NS FOREST,41.910292,-71.395007
24480,BROAD NS DEXTER,41.911788,-71.395834
24485,BROAD OPP BOWEN,41.91231,-71.396272
24495,MENDON NS ANN & HOPE WAY,41.912111,-71.403344
24496,STOP&SHOP (MENDON ROAD - CUMBERLAND),41.913653,-71.405715
24500,MENDON FS ANN & HOPE WAY,41.912798,-71.403343
24520,BROAD FS CUMBERLAND,41.914092,-71.398204
24535,BROAD FS ANN & HOPE WAY,41.914021,-71.398349
24540,ANN & HOPE WAY FS MAIN,41.91362,-71.399755
24555,MENDON NS RR TRACKS,41.914498,-71.40399
24565,MENDON NS BROAD,41.915773,-71.404758
24570,MENDON NS BROAD,41.915921,-71.404687
24595,MENDON FS DORR,41.919153,-71.407389
24605,MENDON NS MARSHALL,41.92016,-71.408541
24641,POWDER HILL OPP CROWNMARD,41.923841,-71.481141
24645,BRYANT UNIVERSITY,41.921526,-71.539059
24675,MENDON FS SUNSET,41.92537,-71.415003
24680,MENDON OPP CUSHING,41.927933,-71.420064
24685,MENDON FS RIVERVIEW,41.92475,-71.413344
24690,MENDON NS MARTIN,41.930227,-71.423273
24695,MENDON FS MARTIN,41.930237,-71.423162
24705,ALBION AT VERIZON,41.930964,-71.482607
24710,MENDON NS RYAN,41.932459,-71.426265
24720,MENDON NS ASHTON PK WAY,41.935403,-71.428944
24725,RT 116 OPP BLACKSTONE VALLEY,41.934608,-71.465415
24730,RT 116 FS RT 126,41.934529,-71.449804
24735,RT 116 FS BLACKSTONE VALLEY,41.934558,-71.457868
24740,RT 116 FS OLD RIVER,41.934657,-71.450929
24745,RT 116 FS WAKE ROBIN,41.934961,-71.473838
24755,ALBION OPP CROSS COMPANY,41.934336,-71.481668
24756,ALBION AT CROSS COMPANY,41.934278,-71.481817
24770,BANK OF AMERICA,41.936207,-71.443966
24775,MENDON NS STORE HILL,41.937356,-71.429522
24785,20 BLACKSTONE VALLEY,41.939404,-71.461828
24810,LINCOLN MALL BETWEEN MARSHALLS & 5 BELOW,41.937541,-71.476323
24815,MENDON NS SCOTT,41.938764,-71.430899
24820,10 AMICA,41.936452,-71.464583
24840,LAPHAM FARM NS VICTORY,41.942859,-71.658163
24870,VICTORY HWAY NS SANDHILL,41.947761,-71.648949
24875,VICTORY HWAY NS LAPHAM,41.943199,-71.657526
24945,VICTORY HWY AT 919 VICTORY HWY,41.951837,-71.649344
24972,BRIDGEWAY NS SAYLES,41.95712,-71.70219
24985,CENTRAL NS CORRIE LANE,41.958838,-71.659908
24990,CENTRAL NS CORRIE LANE,41.958644,-71.65894
24995,MAIN FS ELM,41.960612,-71.699877
25010,MAIN OPP ELM,41.960348,-71.700104
25030,CENTRAL AT 73 CENTRAL,41.962265,-71.671261
25035,CENTRAL FS LYNNE LN,41.961143,-71.66346
25085,CHAPEL FS MAIN ST,41.96673,-71.678861
25100,CHAPEL OPP CHUM BLVD,41.966934,-71.690851
25102,CHAPEL OPP 67 CHAPEL,41.966879,-71.691109
25110,CHAPEL NS MAIN,41.96634,-71.678843
25125,CHAPEL NS FOSTER,41.967568,-71.682526
25275,RT 146 FS SAYLES HILL,41.960172,-71.49383
25300,RT 146A FS OLD SMITHFIELD,41.97107,-71.507966
25315,RT 146A NS RAYMOND,41.980816,-71.513779
25320,RT 146A AT 435 146A,41.972282,-71.509449
25335,RT 146A NS PARK,41.98277,-71.51482
25340,RT 146A AT 63 EDDY DOWLING HWAY,41.980802,-71.513978
25350,RT 146A NS PARK,41.983247,-71.516304
25405,PROVIDENCE NS RT 146A,41.98602,-71.522391
25540,PROVIDENCE FS BALLOU,41.991273,-71.521376
25600,PROVIDENCE NS VOSE,41.993655,-71.521259
25605,PROVIDENCE NS COLLINS,41.993788,-71.5212
25690,PROVIDENCE NS S MAIN,41.996,-71.52235
25695,S MAIN opp BUXTON,41.996581,-71.522405
25705,S MAIN OPP 307 S MAIN,41.996936,-71.521445
25735,S MAIN OPP SOUTH,41.997802,-71.51987
25750,S MAIN FS EAST,41.998143,-71.5194
25760,S MAIN FS FRONT,41.998712,-71.518433
25885,BERNON OPP ALLEN,42.000101,-71.513985
26000,POWDER HILL FS CROWNMARK,41.92373,-71.481251
26015,MAIN FS HIGH,42.00309,-71.513395
26020,POWDER HILL NS JENCKES HILL,41.916646,-71.479773
26155,CLINTON AT 113 CLINTON,42.003986,-71.511595
26910,SMITH OPP FREDERICK,41.836193,-71.42918
26915,SMITH NS PEMBROKE,41.836661,-71.431184
26970,SMITH NS SUNSET,41.854253,-71.468409
27045,ESMOND NS WATERMAN,41.87796,-71.50184
27050,WATERMAN FS BYPASS,41.859573,-71.486127
27055,WATERMAN OPP GREYSTONE FABRICS,41.864322,-71.488596
27060,WATERMAN OPP WHITEHALL APTS,41.865513,-71.489571
27065,WATERMAN FS NELSON,41.867925,-71.491316
27070,WATERMAN FS GLADSTONE,41.869816,-71.492694
27075,WATERMAN OPP MINORU,41.870879,-71.493446
27105,WATERMAN NS BENNYS MAIN OFFICE,41.876368,-71.498987
27115,WATERMAN NS 316 WATERMAN,41.874684,-71.496877
27125,SMITH OPP CAPITAL VIEW,41.848016,-71.45623
27140,SMITH NS WYNDHAM,41.839673,-71.438354
27150,SMITH OPP PEMBROKE,41.836561,-71.431335
27155,ESMOND OPP 2 ESMOND,41.877916,-71.501983
27190,CHARLES OPP 356 CHARLES,41.841544,-71.417832
27200,ALLENS OPP MOTIVA ENTERPRISES,41.797995,-71.399299
27210,NORWOOD FS NARRAGANSETT BLVD,41.779476,-71.393398
27215,POST FS ELKLAND,41.730161,-71.437505
27220,POST FS ALHAMBRA,41.727772,-71.438487
27225,POST AT 3399 POST,41.696412,-71.459086
27230,POST NS HESPER,41.669111,-71.448835
27235,MT PLEASANT OPP MONTROSE,41.82569,-71.448544
27245,MT PLEASANT NS DOVER,41.829562,-71.449162
27250,MT PLEASANT NS ROANOKE,41.831004,-71.449416
27255,MT PLEASANT NS CHALKSTONE,41.832538,-71.449658
27260,COLLEGE FS MT PLEASANT,41.841759,-71.453986
28170,PAWTUCKET OPP DARTMOUTH,41.86129,-71.395923
28605,PROVIDENCE NS COE,41.995453,-71.522165
28610,RT 146A NS WHITE PKWAY,41.984544,-71.519611
28620,CHARLES BETWEEN SMART & DOROTHY,41.857529,-71.421325
29060,BELLEVUE FS LAKEVIEW,41.457661,-71.306211
29070,BELLEVUE FS LEDGE,41.45567,-71.308268
29075,BELLEVUE NS LAKEVIEW,41.457595,-71.30616
29120,GREAT ISLAND RD AT FERRY TERMINAL,41.37899,-71.510485
29140,SAND HILL COVE OPP ROGER WHEELER BEACH,41.37416,-71.498739
29141,SAND HILL COVE AT ROGER WHEELER BEACH,41.37405,-71.498932
29145,OCEAN FS DESANO,41.389111,-71.475734
29146,OCEAN AT SCARBOROUGH BEACH,41.39026,-71.47348
29190,DYER NS CRANSTON,41.790191,-71.45707
29215,CHESTNUT HILL AT 116 CHESTNUT HILL,41.795858,-71.455072
29220,LAUREL HILL FS CHESTNUT HILL,41.795549,-71.45248
29225,DYER AT 711 DYER,41.792871,-71.457664
29235,DYER FS CRANSTON,41.790019,-71.45716
29570,JENNINGS MANOR,41.801635,-71.448757
29600,DEXTER NS COWDEN,41.8875,-71.397948
29610,SCHOOL OPP ENGLEWOOD,41.867494,-71.377351
29615,SCHOOL AT RIVERVIEW TERRACE,41.866668,-71.376619
29620,SCHOOL AT BOYS & GIRLS CLUB,41.86448,-71.375562
29625,SCHOOL OPP MARYLAND,41.862257,-71.375103
29630,BEVERAGE HILL AT SLATER DYE CO,41.860623,-71.373443
29635,BEVERAGE HILL OPP RIDCO,41.860645,-71.372077
29640,BEVERAGE HILL OPP GEORGE BENNETT,41.860815,-71.363589
29655,PRESIDENTIAL PLACE,41.805093,-71.444274
29675,ARLINGTON MANOR,41.800816,-71.44898
29680,HARRIS HOUSE,41.799341,-71.445235
29685,DEVAN MANOR,41.792664,-71.451123
30105,ATWELLS OPP JULIAN,41.82493,-71.444699
30110,ATWELLS FS CARLETON,41.825092,-71.446993
30115,ATWELLS NS CARLETON,41.82491,-71.44676
30120,ATWELLS NS PUTNAM,41.824797,-71.444243
30126,CAHIR FS WESTMINSTER,41.817947,-71.419563
30175,STOP&SHOP (COTTAGE STREET - PAWTUCKET),41.888327,-71.367365
30190,NEWPORT NS CHARPENTIER,41.893028,-71.354121
30195,NEWPORT NS LEE,41.891071,-71.354139
30200,NEWPORT NS BUCKLIN,41.889748,-71.354134
30205,NEWPORT FS ARMISTICE,41.877319,-71.354325
30210,NEWPORT OPP LANNI,41.874412,-71.354352
30215,NEWPORT AT 596 NEWPORT,41.872986,-71.354397
30220,NEWPORT NS COLUMBUS,41.870415,-71.354432
30235,NEWPORT NS PARKVIEW,41.866519,-71.354474
30240,NEWPORT AT 176 NEWPORT,41.863476,-71.354508
30245,NEWPORT NS BEVERAGE HILL,41.861856,-71.354524
30250,NEWPORT AT 191 NEWPORT AVE,41.863789,-71.354388
30255,NEWPORT AT 585 NEWPORT,41.872736,-71.354252
30260,NEWPORT AT 701 NEWPORT,41.875665,-71.354244
30265,NEWPORT NS ARMISTICE,41.878133,-71.354182
30270,NEWPORT NS CRESCENT,41.879482,-71.354164
30280,NEWPORT NS BENEFIT,41.891748,-71.354019
30285,NEWPORT FS CUSHMAN,41.893496,-71.353984
30295,PARENTE'S RESTAURANT,41.924434,-71.530861
30300,DOUGLAS PIKE FS WASHINGTON HWY,41.915765,-71.519108
30305,DOUGLAS PIKE OPP HAMPTON INN,41.914106,-71.517703
30315,RT 146 AT 1148 EDDIE DOWLING HWAY,41.959758,-71.493176
30320,RT 4 FS OAK HILL,41.561053,-71.489529
30325,RT 2 NS PLEASANT VIEW,41.503928,-71.560814
30335,RT 2 OPP BALD HILL GARDEN CTR,41.573863,-71.516586
30350,MEMORIAL HOSPITAL,41.871395,-71.376437
30352,MEMORIAL HOSPITAL,41.871524,-71.376384
30410,BRANCH FS CHARLES,41.850559,-71.420397
30415,BRANCH FS HAWKINS,41.851082,-71.421659
30420,BRANCH NS OPPER,41.852122,-71.424057
30435,BRANCH FS LANGDON,41.852163,-71.424367
30440,BRANCH NS HAWKINS,41.851028,-71.421721
30445,RT 146 AT HONDA,41.954068,-71.48779
30455,RT 146 NS 146N [ON-RAMP],41.967571,-71.50328
30460,RT 146A FS PARK AVE,41.983509,-71.516838
30465,RT 146A OPP WHITE PARKWAY,41.984681,-71.519521
30470,PROVIDENCE FS FABIEN,41.986757,-71.52209
30475,PROVIDENCE NS PIEDMONT,41.988884,-71.521727
30480,PROVIDENCE AT 480 PROVIDENCE,41.990022,-71.521467
30485,PROVIDENCE NS BALLOU,41.991221,-71.521278
30490,PROVIDENCE NS BROAD,41.992711,-71.520976
40010,DOUGLAS PIKE NS DECOTIS FARM,41.919062,-71.522196
50000,MEMORIAL AT MEMORIAL COURT,41.996647,-71.532057
50005,MEMORIAL NS BOURDON,41.997183,-71.532826
50010,MASON OPP 10TH,41.998104,-71.533026
50020,FAIRMOUNT FS 9TH,42.000652,-71.532874
50025,FAIRMOUNT NS 6TH,42.001057,-71.531029
50030,FAIRMOUNT FS 5TH,42.001352,-71.529429
50035,FAIRMOUNT FS 4TH,42.001593,-71.528376
50040,SECOND FS CHESTNUT,42.003147,-71.527377
50045,SECOND AT 525 SECOND ST,42.004927,-71.528058
50055,SECOND NS RIVER,42.006383,-71.528139
50060,RIVER FS 2ND,42.006678,-71.527245
50065,RIVER OPP BLACKSTONE,42.00487,-71.523894
50070,VERRY OPP YMCA,42.004491,-71.520467
50075,RAILROAD NS ARNOLD,42.004529,-71.517853
50080,RAILROAD OPP 147 RAILROAD,42.004061,-71.515452
50085,FRONT ST AT 100 FRONT ST,42.001195,-71.511139
50090,CLINTON FS VETS PKWAY,42.005575,-71.509648
50095,CLINTON AT STRIPMALL,42.006388,-71.507343
50105,CLINTON AT KENNEDY MANOR,42.007385,-71.504596
50110,CUMBERLAND FS CLINTON,42.00754,-71.502326
50115,CUMBERLAND OPP LOCUST,42.006909,-71.501622
50120,CUMBERLAND FS KENDRICK,42.00635,-71.500929
50125,CASS OPP DULUDE,42.005211,-71.496682
50130,SWEET OPP STANLEY,42.006881,-71.49366
50135,ELM MIDBLOCK HEBERT,42.007752,-71.493129
50140,ELM NS FLORIDA,42.008049,-71.491322
50145,ROBINSON OPP 632 ROBINSON,42.009056,-71.490144
50150,ROBINSON AT 715 ROBINSON,42.009248,-71.488921
50155,MORIN HEIGHTS AT 263 MORIN HEIGHTS,42.01072,-71.487805
50160,LINDEN NS HAYES,42.012994,-71.488135
50165,LINDEN NS DIAMOND HILL,42.015316,-71.487136
50170,DIAMOND HILL AT CROWN COURT,42.015691,-71.484439
50190,WALNUT HILL (SAVERS),42.01679,-71.477596
50195,WALNUT HILL (SHAWS),42.016935,-71.478893
50200,DIAMOND HILL OPP WALNUT HILL,42.015673,-71.47813
50205,DIAMOND HILL AT CITIZENS BANK,42.015424,-71.475386
50215,DIAMOND HILL (PRICERITE),42.016942,-71.471245
50220,DIAMOND HILL (DOLLAR TREE),42.016037,-71.472633
50290,DIAMOND HILL AT DIAMOND HILL PLAZA,42.015216,-71.472045
50305,DIAMOND HILL AT 1240 DIAMOND HILL,42.015779,-71.483534
50310,DIAMOND HILL OPP CROWN COURT,42.015797,-71.484791
50315,LINDEN FS DIAMOND HILL,42.015479,-71.487202
50320,LINDEN NS FALL,42.012879,-71.488304
50325,MORIN HEIGHTS OPP 263 MORIN HEIGHTS,42.01068,-71.487879
50330,ROBINSON AT BLDG 16,42.009112,-71.489406
50335,ELM NS COTE,42.008121,-71.491414
50340,ELM FS HEBERT,42.007905,-71.492933
50345,SWEET FS STANLEY,42.007009,-71.493716
50350,CASS OPP 219 CASS,42.005533,-71.494748
50355,CASS NS MAILLOUX,42.005287,-71.497039
50360,CUMBERLAND NS LOCUST,42.00649,-71.500861
50365,CUMBERLAND NS CLINTON,42.007908,-71.502568
50370,SOCIAL FS CUMBERLAND,42.008804,-71.504218
50380,SOCIAL AT BEAUCHEMIM LUMBER,42.008158,-71.507615
50385,SOCIAL NS POND,42.007467,-71.509765
50390,SOCIAL OPP POST OFFICE,42.006559,-71.511309
50435,FAIRMOUNT NS 4TH,42.00168,-71.528315
50440,FAIRMOUNT OPP 5TH,42.0014,-71.529665
50445,FAIRMOUNT AT 573 FAIRMOUNT,42.001133,-71.53097
50450,NINTH FS FAIRMOUNT,42.000499,-71.533089
50451,MASON NS 10TH,41.998198,-71.532942
50455,NINTH NS CHAPEL,41.999709,-71.53278
50456,BOURDON NS MEMORIAL,41.997716,-71.533223
50475,HUXLEY FS ADMIRAL,41.846027,-71.432809
50480,RT 2 OPP 40 S COUNTY TRL,41.555552,-71.520313
50485,RT 2 OPP VETERANS CEMETARY,41.545867,-71.534215
50490,W FRANKLIN NS WESTMINSTER,41.819197,-71.419447
50495,DYER AT 546 DYER,41.798494,-71.457766
50610,EAST AVE OPP MANNING,41.865502,-71.387351
50620,DRAPER OPP SUNRISE,41.706665,-71.371855
50630,RT 2 NS RI VETERANS MEMORIAL CEMETERY,41.545923,-71.534237
50635,RT 2 OPP YAWGOO VALLEY,41.521709,-71.553896
50640,RT 2 AT 2081 S COUNTY TRL,41.503871,-71.561119
50645,RT 2 NS WAITES CORNER,41.495404,-71.569591
50650,RT 2 NS RT 138,41.493119,-71.573104
50655,KINGSTOWN FS W KINGSTON PARK,41.488602,-71.567539
50665,KINGSTOWN NS FAIRGROUNDS,41.485173,-71.561865
50675,KINGSTOWN FS WATSON,41.483611,-71.555325
50680,KINGSTOWN NS TLC COFFEE ROASTERS,41.483126,-71.552351
50685,KINGSTOWN OPP W INDEPENDENCE WAY,41.482704,-71.540456
50690,KINGSTOWN OPP RYAN CENTER,41.482359,-71.538198
50720,KINGSTOWN NS PLAINS,41.482103,-71.549827
50725,KINGSTOWN OPP WATSON,41.483848,-71.555632
50735,KINGSTOWN NS FAIRGROUNDS,41.485132,-71.561195
50740,KINGSTOWN OPP W KINGSTON PARK,41.488822,-71.567559
50750,RT 2 FS RT 138,41.493514,-71.572194
50755,RT 2 OPP BARBERS POND,41.499017,-71.563931
50760,RT 2 NS WOLF ROCK,41.511206,-71.556856
50765,RT 2 OPP OAK HARBOUR SHOPPING PLAZA,41.526621,-71.551301
50770,RT 2 NS LIBERTY HILL OFFICE PARK,41.536083,-71.543068
50775,RT 2 NS DRYBRIDGE,41.558881,-71.518094
50780,RT 2 FS BEACON,41.571381,-71.516674
50790,MAIN NS KENYON,41.71213,-71.523451
50795,WASHINGTON NS BOSTON,41.697191,-71.546474
50800,S MAIN OPP HOPKINS HILL,41.682314,-71.568823
50805,MAIN OPP BRADLEY,41.709374,-71.522654
50815,MIDWAY NS CYPRESS DR,41.76063,-71.456653
50825,TIOGUE AT 1145 TIOGUE AVE (BURGER KING),41.679115,-71.581181
50830,DIAMOND HILL (MCDONALDS),42.015852,-71.471741
51005,PARK PLACE NS CHURCH,41.875907,-71.387349
51010,GEORGE NS HARRISON,41.874358,-71.387516
51025,COUNTY NS 395 COUNTY RD,41.745521,-71.315709
51030,COUNTY NS HILLTOP,41.742787,-71.312346
51055,COUNTY FS POLICE COVE PARK N RIDE,41.736528,-71.298415
51060,COUNTY AT 361 COUNTY RD,41.744247,-71.314358
51070,COUNTY OPP 395 COUNTY RD,41.745539,-71.315566
51085,HOWARD OPP 16 HOWARD,41.742584,-71.462781
51095,RT 102 OPP PINE MEADOW,41.921284,-71.670493
51105,RT 102 NS RT 44,41.916273,-71.671686
51110,PUTNAM PIKE AT DUNKIN DONUTS,41.906556,-71.660513
51115,PUTNAM PIKE OPP HIGHLAND LAKE,41.905391,-71.654335
51120,CENTRAL NS VICTORY HWY,41.955001,-71.65204
51125,PUTNAM PIKE FS AUSTIN,41.872687,-71.55481
51140,PUTNAM PIKE FS HIGHLAND LAKE,41.905499,-71.654512
51145,RT 102 FS RT 44,41.916165,-71.671487
51165,MEMORIAL FS EXCHANGE ST,41.826819,-71.412824
55070,POWER FS ATWOOD,41.870866,-71.418165
55195,LONGMEADOW OPP DRAPER,41.704108,-71.373944
55215,WARWICK OPP NINIGRET,41.732445,-71.406928
55235,PLAINFIELD FS SVC RD 1,41.8159,-71.445306
55240,PLAINFIELD OPP CLEMENCE,41.796294,-71.482183
55255,SAILOR WAY FS PLAINFIELD,41.787772,-71.509403
55260,AMFLEX FS NINETY-NINE WAY,41.786166,-71.511674
55265,DYER NS INDUSTRIAL RD,41.788007,-71.456321
55285,PLAINFIELD OPP NEUTACONKANUT REC CTR,41.810902,-71.461998
55290,POST OPP ALHAMBRA,41.728117,-71.438114
55295,ANN & HOPE WAY NS MENDON,41.912542,-71.402047
55305,ANN & HOPE WAY FS MENDON,41.912411,-71.402078
55310,ANN & HOPE WAY NS BROAD,41.913594,-71.399637
55315,BROAD OPP HIGH,41.898355,-71.389098
55320,COLLYER PARK (R-LINE),41.875198,-71.391864
55325,PEARL STREET (R-LINE),41.871678,-71.395277
55340,RT 2 AT AIM HIGH ACADEMY,41.605485,-71.494735
55345,RT 2 FS STONY LANE,41.593612,-71.498572
55350,RT 4 FS OAK HILL,41.560208,-71.489664
55360,RT 2 FS STONY LANE,41.594657,-71.497542
55365,RT 2 OPP AIM HIGH ACADEMY,41.605465,-71.494507
55385,CHARLES OPP 400 CHARLES,41.843714,-71.418304
55390,CHARLES OPP ESEK HOPKINS MIDDLE SCHOOL,41.84867,-71.41959
55405,CHARLES FS MOBIL GAS,41.836123,-71.412326
55500,COMSTOCK NS PLEASANT,41.788141,-71.516289
55505,COMSTOCK NS SCITUATE,41.78091,-71.515483
55510,SCITUATE AT SCITUATE VISTA DR,41.778754,-71.488344
55515,SCITUATE OPP SCITUATE VISTA APTS,41.778828,-71.488221
55520,COMSTOCK FS SCITUATE,41.781364,-71.515307
55525,COMSTOCK OPP PLAINFIELD,41.78798,-71.516042
55530,DOUGLAS PIKE AT 151 DOUGLAS PIKE,41.880355,-71.475602
55535,DOUGLAS PIKE OPP RAY,41.883826,-71.480733
55540,DOUGLAS PIKE AT 373 DOUGLAS PIKE,41.889398,-71.489098
55545,DOUGLAS PIKE NS MAUREEN,41.894534,-71.495878
55550,DOUGLAS PIKE FS LIMEROCK,41.902175,-71.504516
55555,DOUGLAS PIKE NS THURBER,41.912553,-71.51594
55560,DOUGLAS PIKE NS WASHINGTON HWY,41.916099,-71.519133
55565,DOUGLAS PIKE NS WASHINGTON HWY,41.918979,-71.522507
55570,DOUGLAS PIKE NS LIMEROCK,41.902231,-71.504868
55575,DOUGLAS PIKE AT 206 DOUGLAS PIKE,41.883202,-71.48001
55580,DOUGLAS PIKE NS TWIN RIVER,41.880199,-71.475576
55585,DOUGLAS PIKE AT 80 DOUGLAS PIKE,41.878437,-71.472922
55640,OAKLAWN AT 1195 OAKLAWN AVE (CVS PHARMACY),41.736739,-71.478209
55645,COLLEGE NS COLE,41.841578,-71.456403
55660,COLLEGE OPP COLE,41.841379,-71.456924
55685,WOONASQUATUCKET NS ARDWICK,41.837151,-71.469527
55690,WOONASQUATUCKET OPP TAG,41.83834,-71.471581
55695,WOONASQUATUCKET AT 129 WOONASQUATUCKET,41.839262,-71.473274
55710,GREENVILLE FS LYMAN,41.838971,-71.483207
55720,WOONASQUATUCKET OPP HUMBERT,41.844624,-71.477048
55735,BROADWAY FS PALLAS,41.821039,-71.424375
55745,CENTREVILLE FS VETERANS MEMORIAL,41.698653,-71.461687
55780,BULLOCKS POINT OPP 100 BULLOCKS POINT,41.775562,-71.36347
55785,BULLOCKS POINT NS WASHINGTON,41.77284,-71.363209
55800,BULLOCKS POINT NS RIVER,41.764708,-71.360851
55805,BULLOCKS POINT AT 110 BULLOCKS POINT,41.775474,-71.363246
55810,BULLOCKS POINT FS WILLETT,41.777805,-71.363138
55815,TAUNTON AVE OPP SHOPPERS TOWN MALL,41.821727,-71.35821
55825,NEWPORT AT FIRE DEPARTMENT,41.867777,-71.354338
55835,PAWTUCKET OPP BOWEN,41.847342,-71.354187
55840,PAWTUCKET FS NEWMAN,41.841804,-71.350034
55845,PAWTUCKET AT ST MARGARET,41.843997,-71.351166
55850,PAWTUCKET NS WEEDEN,41.846205,-71.352643
55855,PAWTUCKET FS BOWEN,41.847534,-71.354238
55860,BEVERAGE HILL NS FRED,41.860694,-71.364807
55865,BEVERAGE HILL NS GLEN MEADOWS,41.86076,-71.361443
55870,BEVERAGE HILL NS GREEN LANE,41.860789,-71.359149
55875,BEVERAGE HILL NS JONES,41.86083,-71.356567
55880,BEVERAGE HILL NS NEWPORT,41.860835,-71.355163
55885,PAWTUCKET OPP WEEDEN,41.84634,-71.352984
55895,ELMGROVE NS WOODBURY,41.845001,-71.391836
55900,HOPE NS 616 HOPE,41.843407,-71.397735
55910,CAMP FS LANCASTER,41.846162,-71.400872
55920,CAMP NS GRANDVIEW,41.844522,-71.402091
55930,MAIN BETWEEN ASCENSION & ARNOLD,42.001143,-71.515817
55935,RIVER FS SAYLES,42.000997,-71.517546
55940,RIVER OPP 252 RIVER,42.002701,-71.517927
55945,RIVER OPP CANAL,42.003663,-71.520338
55955,SILVER SPRING AT WALMART,41.84563,-71.417518
55965,POWER NS PRENTICE,41.870834,-71.418006
55975,LONSDALE OPP PALM,41.879887,-71.400046
55980,LONSDALE FS PARK,41.882872,-71.400213
55990,EXCHANGE FS BROAD,41.879656,-71.386129
55995,DEXTER FS GOFF,41.879482,-71.388256
56000,DEXTER NS SCHOOL,41.889012,-71.399207
56030,LONSDALE NS FRONT,41.906501,-71.40356
56035,LONSDALE NS ORCHARD,41.88526,-71.400778
56045,LONSDALE NS BARBER,41.883147,-71.40033
56050,LONSDALE OPP PRICERITE,41.880909,-71.400207
56065,DEXTER NS DEXTER CT,41.88111,-71.390332
56070,MINERAL SPRING FS SMITHFIELD,41.871169,-71.414163
56075,MINERAL SPRING NS SLATER,41.874626,-71.396942
56090,LONSDALE OPP 1158 LONSDALE,41.895565,-71.404722
56100,LONSDALE NS VALLEY VIEW,41.897558,-71.404341
56105,LONSDALE MIDBLOCK EDGEHILL,41.89964,-71.404915
56110,LONSDALE AT 1501 LONSDALE,41.904067,-71.404272
56120,MENDON FS LONSDALE SCHOOL ST,41.908364,-71.403002
56125,MENDON NS FRANKLIN,41.917496,-71.405973
56130,MENDON FS MARSHALL,41.920471,-71.408738
56135,MENDON OPP 300 MENDON,41.92199,-71.410403
56140,MENDON AT 593 MENDON,41.923203,-71.411703
56145,MENDON NS ORA MURPHY,41.933402,-71.426692
56150,MENDON FS ASHTON PKWAY,41.935743,-71.428919
56160,MENDON NS ANGELL,41.937368,-71.429393
56165,RT 116 FS BLACKSTONE RIVER STATE PARK,41.937086,-71.43624
56170,RT 116 AT 640 G WASHINGTON HWAY,41.934651,-71.459804
56175,RT 116 OPP LINCOLN MALL ENTRANCE,41.935065,-71.477274
56176,RT 116 NS WAKE ROBIN,41.935131,-71.473729
56185,ALBION OPP VERIZON,41.931028,-71.48271
56195,RT 116 NS 695 G WASHINGTON HWAY,41.934859,-71.444902
56200,RT 116 FS BANK OF AMERICA,41.935639,-71.44045
56205,RT 116 OPP BLACKSTONE RIVER PARK,41.936992,-71.436053
56215,MENDON FS SCOTT,41.939034,-71.431456
56225,MENDON OPP ORA MURPHY,41.933622,-71.427038
56235,MENDON NS HUNT,41.926677,-71.417666
56240,MENDON AT BERKELEY COMMONS,41.92289,-71.411534
56245,MENDON FS MARSHALL,41.918385,-71.406891
56250,MENDON FS FRANKLIN,41.917285,-71.40595
56255,MENDON FS BROAD,41.913851,-71.403952
56260,LONSDALE NS COOK,41.909929,-71.402687
56265,LONDALE NS LONSDALE SCHOOL ST,41.90828,-71.403197
56270,LONSDALE NS TUCKER,41.892702,-71.40316
56275,MAIN NS WALCOTT,41.875954,-71.380754
56310,CENTRAL FS MENDON,41.885529,-71.364033
56311,CENTRAL FS FREEMAN,41.885281,-71.366046
56335,CENTRAL FS CHASE,41.888859,-71.350611
56435,POND NS YOUNG,41.871852,-71.374677
56475,POND NS BREWSTER,41.871823,-71.375136
56480,SUMMIT FS POND,41.871546,-71.377013
56485,SUMMIT FS MEADOW,41.873056,-71.377781
56495,WALCOTT NS MAYNARD,41.877129,-71.37625
56500,WALCOTT FS FRENCH,41.877299,-71.375125
56505,WALCOTT NS DENVER,41.87749,-71.37428
56515,ARMISTICE FS GEORGE BENNETT,41.88027,-71.364101
56525,ARMISTICE NS LITTLEFIELD,41.878543,-71.355252
56530,ARMISTICE NS PARKSIDE AVE,41.875741,-71.342971
56560,WALCOTT NS UNDERWOOD,41.876971,-71.377645
56565,DOUGLAS PIKE OPP MAUREEN,41.894696,-71.496296
56590,HUXLEY OPP VENTURA,41.844565,-71.433021
56605,SMITHFIELD OPP COLONIAL,41.858106,-71.459545
56615,SMITHFIELD NS COLONIAL,41.857988,-71.460079
56655,MINERAL SPRING NS MARTIN,41.864503,-71.448176
56660,MINERAL SPRING AT N PROV HIGH SCHOOL,41.861765,-71.460143
56665,MINERAL SPRING AT 1720 MINERAL SPRING,41.862684,-71.455398
56670,MINERAL SPRING AT 1624 MINERAL SPRING,41.863896,-71.450261
56675,MINERAL SPRING FS CHANANGO,41.864306,-71.448501
56680,MINERAL SPRING NS FRIENDSHIP,41.865142,-71.445263
56685,MINERAL SPRING FS IRVING,41.867326,-71.438127
56690,CHARLES AT 1105 CHARLES,41.86961,-71.425611
56695,MAIN OPP 32 MAIN,42.000982,-71.515791
56700,PROVIDENCE BETWEEN AVENUE B & PIEDMONT,41.988948,-71.52181
56705,SECOND OPP 103 SECOND,41.498628,-71.320415
56710,SECOND NS PINE,41.496743,-71.320205
56720,SECOND NS POPLAR,41.493479,-71.319751
56725,SECOND NS MARSH,41.491483,-71.31948
56750,BELLEVUE FS ROUGH POINT,41.456229,-71.306319
56760,BELLEVUE OPP ROUGH POINT,41.456126,-71.306377
56765,GIRARD AT 120 GIRARD,41.514639,-71.313804
56775,W MAIN OPP MAPLEWOOD,41.51945,-71.299852
56785,GIRARD NS LEAL TERRACE,41.514804,-71.313785
56795,HILLSIDE OPP EISENHOWER,41.509727,-71.307871
56805,W MAIN BETWEEN ROCKWOOD & E MAIN,41.517555,-71.30038
56830,BOYDS LANE NS OLD BOYDS,41.630229,-71.246093
56835,E MAIN AT 94 E MAIN,41.5178,-71.297398
56840,BRISTOL FERRY AT 502 BRISTOL FERRY,41.628566,-71.25503
56845,W MAIN FS BAYVIEW APTS ENTRANCE,41.565399,-71.283983
56880,RT 3 NS RT 216,41.423398,-71.786295
56885,RT 3 OPP MAXSON HILL RD,41.427378,-71.783669
56890,RT 3 FS MILROSE,41.394876,-71.802549
56910,RT 2 AT 1675 TEN ROD RD,41.576487,-71.514626
56915,RT 2 FS RAYMOND POTTER LANE,41.517724,-71.555077
56920,RT 2 OPP WOLF ROCK,41.511531,-71.556922
56930,KINGSTOWN FS CURTIS CORNER,41.462061,-71.50934
56945,KINGSTOWN AT 1436 KINGSTOWN,41.45427,-71.505427
56950,HIGH FS ALLEN,41.444983,-71.502939
56965,MAIN OPP 313 MAIN,41.43888,-71.498711
56970,MAIN NS WOODRUFF,41.440712,-71.495915
56975,OLD TOWER HILL OPP JOB LOT,41.441673,-71.486962
56980,POINT JUDITH NS SALT POND PLAZA,41.429183,-71.480964
56990,POINT JUDITH FS SUNNYBROOK FARM,41.421664,-71.481529
56995,POINT JUDITH OPP OLD POINT JUDITH,41.417617,-71.479815
57000,POINT JUDITH FS FODDERING FARM,41.412123,-71.478398
57005,POINT JUDITH FS PALM BEACH,41.402838,-71.479576
57010,POINT JUDITH FS MARTIN,41.39929,-71.479989
57025,BURNSIDE NS OCEAN RD,41.392075,-71.471463
57030,OCEAN FS GREENBRIER,41.386992,-71.477278
57035,KNOWLESWAY FS OCEAN,41.386461,-71.477978
57040,KNOWLESWAY FS LONGVIEW,41.386962,-71.480056
57045,KNOWLESWAY NS ERIE,41.387318,-71.481944
57050,KNOWLESWAY FS COFFEY,41.387825,-71.485034
57055,POINT JUDITH FS KNOWLESWAY,41.387328,-71.4858
57060,POINT JUDITH NS SUNSET,41.38534,-71.486581
57065,POINT JUDITH FS SEALEA,41.38088,-71.488065
57075,SAND HILL COVE FS HEMLOCK,41.375016,-71.491027
57080,SAND HILL COVE NS CHESTNUT,41.374395,-71.49244
57085,SAND HILL COVE NS SALTAIRE,41.372935,-71.49507
57105,MAIN NS RIVER,41.44073,-71.497062
57115,HIGH OPP 50 HIGH,41.438122,-71.502026
57120,HIGH OPP 180 HIGH,41.44168,-71.502244
57125,KINGSTOWN FS HIGH,41.451399,-71.500687
57135,RT 2 AT 710 S COUNTY TRL (WOLF ROCK VETERINARY),41.5175,-71.554945
57136,RT 2 NS YAWGOO VALLEY,41.521521,-71.553816
57140,RT 2 OPP SHARTNER FARMS,41.565093,-71.517419
57145,G BENNET FS CENTRAL,41.884979,-71.366979
57165,POND FS ARCH,41.872174,-71.373633
57170,SUMMIT NS JOHNSON,41.874168,-71.378397
57180,SUMMIT NS WALCOTT,41.876297,-71.379077
57185,G BENNET NS CENTRAL,41.885084,-71.366903
57190,SUMMIT FS WALCOTT,41.875863,-71.379095
57195,GREAT ISLAND RD AT COAST GUARD,41.37764,-71.511961
57200,SAND HILL COVE NS STANTON,41.372687,-71.495313
57205,SAND HILL COVE NS CHESTNUT,41.373951,-71.493059
57210,SAND HILL COVE OPP 21 SAND HILL COVE,41.375094,-71.490104
57215,POINT JUDITH OPP SALTAIRE,41.375682,-71.488519
57220,POINT JUDITH FS SCHOONER COVE,41.378492,-71.488229
57225,POINT JUDITH AT USAR CENTER,41.381458,-71.487498
57230,POINT JUDITH OPP SUNSET,41.38523,-71.48627
57235,POINT JUDITH NS KNOWLESWAY,41.387555,-71.485485
57240,KNOWLESWAY OPP COFFEY,41.387579,-71.48454
57250,KNOWLESWAY NS OCEAN,41.386333,-71.477948
57255,OCEAN OPP GREENBRIER,41.387521,-71.47659
57260,OCEAN MIDBLOCK BURNSIDE,41.391049,-71.471978
57270,BURNSIDE OPP DESANO,41.393182,-71.4742
57280,BURNSIDE NS POINT JUDITH,41.394456,-71.481578
57285,POINT JUDITH OPP GULF GAS,41.396264,-71.481227
57290,POINT JUDITH FS LINDSLEY,41.399781,-71.479569
57295,POINT JUDITH FS MANNING,41.404,-71.479052
57300,POINT JUDITH FS WINDERMERE,41.413023,-71.478158
57305,POINT JUDITH NS OLD POINT JUDITH,41.417035,-71.479115
57315,POINT JUDITH FS WESTMORELAND,41.425895,-71.480895
57320,POINT JUDITH AT 90 POINT JUDITH,41.429192,-71.480742
57405,NORTH AT 83 NORTH RD,41.50085,-71.374766
57510,NARRAGANSETT NS GREEN,41.496246,-71.36939
57520,NARRAGANSETT AT 92 NARRAGANSETT,41.496233,-71.374074
57525,NORTH OPP 79 NORTH,41.50072,-71.374606
57526,NORTH RD FS TASHTASSUC,41.5258,-71.37488
57530,RT 138 NS RT 1,41.494629,-71.456956
57535,BRIDGETOWN FS RT 1,41.494559,-71.456021
57540,BRIDGETOWN FS RIVERSIDE,41.48869,-71.44662
57555,BRIDGETOWN AT 130 BRIDGETOWN,41.49033,-71.445921
57560,BRIDGETOWN NS WALMSLEY,41.488291,-71.449408
57565,RT 138 AT 61 MOORESVILLE RD,41.494603,-71.458699
57575,JAMESTOWN HOUSING,41.499648,-71.376341
57660,CENTRAL FS NEWPORT,41.888024,-71.353617
57665,BRADLEY NS BENEFIT,41.891425,-71.344334
57670,WALCOTT NS NORTH BEND,41.87767,-71.372897
57675,NORTH BEND FS WALCOTT,41.878109,-71.372851
57680,CENTRAL NS NEWPORT,41.888115,-71.353627
57685,NORTH BEND NS WALCOTT,41.878161,-71.37297
57690,WALCOTT FS WALNUT,41.877327,-71.375563
57705,COLUMBUS OPP YORK,41.870446,-71.365174
57710,G BENNET OPP DIVISION,41.874799,-71.364443
57715,G BENNET NS ARMISTICE,41.879991,-71.364618
57730,MAIN NS ST MARY,41.704356,-71.524209
57740,MAIN FS WASHINGTON,41.703443,-71.524081
57760,ADM KALBFUS AT ROLLING GREEN APTS,41.506826,-71.319378
57840,CODDINGTON OPP LANDINGS,41.518513,-71.30297
57865,CODDINGTON NS THE LANDINGS,41.518492,-71.30153
57870,CODDINGTON OPP CCRI ENTRANCE,41.51835,-71.313613
57905,TOURO OPP DIVISION,41.489445,-71.312216
57915,THAMES FS WASHINGTON SQ,41.489473,-71.315268
57920,THAMES OPP MARY,41.48838,-71.315153
58040,UNDERWOOD FS WALCOTT,41.877392,-71.378397
58045,UNDERWOOD NS GROVE,41.878526,-71.378151
58050,ROCHAMBEAU OPP 405 ROCHAMBEAU,41.84606,-71.389531
58060,ELMGROVE OPP 311 ELMGROVE,41.845182,-71.391926
58070,ELMGROVE OPP JEWISH CENTET,41.842002,-71.392696
58105,ELMGROVE OPP 341 ELMGROVE,41.840439,-71.392572
58110,ELMGROVE AT POLE 58,41.837813,-71.392045
58120,ELMGROVE AT 152 ELMGROVE,41.834888,-71.391099
58135,BELLEVUE AT MARBLE HOUSE,41.462432,-71.306561
58140,GATE RD FS SAMS CIRCLE,41.605668,-71.447293
58145,CCRI (NEWPORT CAMPUS),41.51735,-71.31302
58150,EDDY FS SOUTH,41.817337,-71.406907
58165,POST AT 446 POST RD,41.759989,-71.405174
58175,EDDY FS EUDORA,41.80784,-71.407176
58180,WARWICK OPP HARDING,41.759719,-71.404782
58185,WARWICK AT 2323 WARWICK,41.713487,-71.399323
58205,SAMUEL GORTON OPP STEPHANIE,41.699613,-71.380565
58220,DRAPER NS WEST SHORE,41.709558,-71.374193
58230,WARWICK OPP 2485 WARWICK,41.709644,-71.397882
58235,WARWICK NS DAWSON,41.746041,-71.405843
58240,WARWICK FS URBAN,41.751061,-71.403953
58245,WARWICK AT 706 WARWICK,41.75742,-71.404418
58250,W FRANKLIN AT CROSSROADS,41.816815,-71.416497
58260,PRAIRIE NS GALLUP,41.800081,-71.412539
58290,JEFFERSON BLVD NS ECHO,41.715019,-71.447807
58295,STRAWBERRY FIELD FS EVERGLADE,41.71199,-71.427855
58300,BUTTONWOODS FS WEST SHORE,41.701628,-71.43048
58315,PUTNAM PIKE OPP 668 PUTNAM PIKE,41.875902,-71.566021
58320,PUTNAM PIKE AT 711 PUTNAM PIKE,41.87664,-71.568604
58325,PUTNAM PIKE OPP DUNKIN DONUTS,41.906576,-71.660221
58330,PUTNAM PIKE OPP RADIO TOWER,41.910059,-71.668163
58335,VICTORY HWY AT 545 VICTORY HWY,41.944144,-71.655121
58340,VICTORY HWY AT 849 VICTORY HWY,41.949892,-71.648367
58345,VICTORY HWY OPP 908 VICTORY HWY,41.951463,-71.649122
58350,CENTRAL AT 520 CENTRAL,41.957761,-71.656284
58360,MAIN NS CHAPEL,41.96592,-71.676945
58365,CHAPEL AT SUNOCO,41.968535,-71.687459
58370,MAIN OPP ALBEE,41.958762,-71.701371
58385,PUTNAM PIKE NS TERRY LANE,41.904888,-71.647124
58390,PUTNAM PIKE NS LAKE HARMONY DR,41.885595,-71.587248
58395,PUTNAM PIKE NS VERNON,41.876675,-71.568805
58415,BROAD NS LOCKWOOD,41.815221,-71.420668
58420,HILLSIDE FS GARDEN CITY DR,41.764947,-71.458461
58425,MIDWAY AT 150 MIDWAY,41.759674,-71.456792
58440,PROVIDENCE FS ENFIELD,41.730763,-71.486959
58460,WASHINGTON OPP PULASKI,41.695476,-71.537398
58465,TIOGUE FS S MAIN,41.67998,-71.575939
58495,POST AT 3445 POST,41.695466,-71.458247
58505,POST AT 4365 POST,41.672066,-71.448136
58525,POST OPP 130 POST,41.570773,-71.461408
58530,POST AT 209 POST,41.5689,-71.461813
58535,POST AT ST BERNARD CHURCH ENTRANCE,41.567268,-71.463028
58540,PHILLIPS OPP BOONE,41.56766,-71.456948
58550,BOSTON NECK OPP WALDRON,41.552471,-71.440993
58555,BOSTON NECK AT 1174 BOSTON NECK,41.490068,-71.437921
58560,BOSTON NECK FS WAMPUM,41.481007,-71.436697
58565,NARRAGANSETT NS CASWELL,41.433229,-71.460175
58575,FAREWELL FS LONG LANE,41.49905,-71.317134
58580,FAREWELL FS AMERICAS CUP,41.495458,-71.316665
58590,FAREWELL OPP 10 FAREWELL,41.499304,-71.317011
58595,BOSTON NECK OPP 1024 BOSTON NECK,41.482333,-71.43666
58600,BOSTON NECK AT 1183 BOSTON NECK,41.490535,-71.437797
58605,BOSTON NECK NS HIGHLAND,41.52004,-71.423987
58615,BOSTON NECK NS OAKLAND,41.567761,-71.451154
58620,PHILLIPS FS BOONE,41.567581,-71.457368
58625,PHILLIPS AT 225 PHILLIPS,41.566431,-71.45957
58630,PHILLIPS AT 319 PHILLIPS,41.566251,-71.462854
58635,POST OPP ST BERNARD CHURCH,41.56741,-71.462796
58640,POST OPP 185 POST,41.569225,-71.461316
58645,POST AT 130 POST,41.571069,-71.461269
58650,POST NS NEWCOMB,41.606905,-71.455525
58660,POST OPP GILLAN,41.706135,-71.452475
58670,GREAT ISLAND RD AT SALTY BRINE BEACH,41.377025,-71.512646
58760,FAIRMOUNT OPP WATER,42.003727,-71.522269
58765,FAIRMOUNT NS 1ST,42.002245,-71.525703
58770,SACKETT FS BROAD,41.795952,-71.412969
58775,HIGH ST OPP SUMMER,41.878166,-71.383849
58780,DOUGLAS PIKE NS HARRIS,41.90353,-71.506158
58785,DOUGLAS PIKE FS WASHINGTON HWY,41.918251,-71.521002
58790,FIDELITY CIRCLE,41.927506,-71.531622
58795,DOUGLAS PIKE FS THURBER,41.912419,-71.516108
58800,CHARLES NS HOME DEPOT PARKING LOT,41.843288,-71.418284
58815,STOP&SHOP (PAWTUCKET AVENUE - EAST PROVIDENCE),41.823281,-71.356792
58830,BOYDS LANE NS RTE. 24,41.627897,-71.243512
58831,PORTSMOUTH PARK & RIDE LOT,41.628178,-71.242904
58845,PIER RD FS SOUTH FERRY,41.49198,-71.424045
58870,PLENTY STREET - SAINT JOSEPH'S HOSPITAL (R-LINE),41.807041,-71.420198
58880,BROAD FS SHELTON,41.766131,-71.390903
58910,IVES NS POWER,41.823765,-71.392363
58930,BROADWAY OPP ATWELLS,41.822479,-71.418087
58935,FIRST FS CLIFF,41.656041,-71.455128
58940,LINCOLN MALL PARK & RIDE,41.938687,-71.475118
58945,LINCOLN MALL AT TARGET,41.937684,-71.47835
58980,PRAIRIE OPP SARATOGA,41.8052,-71.414734
58985,HAWTHORNE FS TENNIS COURTS,41.789272,-71.412814
58990,ROGER WILLIAMS ZOO,41.789967,-71.415001
58995,HAWTHORNE OPP TENNIS COURTS,41.789422,-71.412454
59005,PRAIRIE AT ROGER WILLIAMS HOMES,41.796153,-71.410733
59015,PILGRIM AT THE MET SCHOOL,41.806343,-71.411652
59025,E FRANKLIN NS BASSETT,41.815844,-71.412416
59030,E FRANKLIN NS BROAD,41.81762,-71.415516
59035,JEFFERSON BLVD AT TRAIN STATION,41.727592,-71.44334
59060,PAWTUCKET TRANSIT CTR (SLATER MILL SIDE),41.877144,-71.383354
59065,THIRD FS N MAIN,41.851027,-71.401935
59075,MIRIAM HOSPITAL (SEVENTH ST),41.852517,-71.397983
59080,THIRD OPP MIRIAM EMPLOYEES LOT,41.851007,-71.40171
59105,WESTMINSTER NS FRANKLIN,41.819155,-71.417933
59120,CHALKSTONE FS ACADEMY,41.832548,-71.44491
59140,ELMWOOD NS SIXTH,41.752121,-71.423416
59145,ATWELLS NS HARRIS,41.824476,-71.434829
59150,ATWELLS FS HARRIS,41.824335,-71.434662
59155,CHALKSTONE OPP 1644 CHALKSTONE,41.833117,-71.463264
59165,S ANGELL NS WAYLAND,41.829994,-71.387362
59170,S MAIN FS PARK,41.817599,-71.400801
59175,ELMWOOD NS WARWICK ANIMAL HOSPITAL,41.754764,-71.423681
59180,ELMWOOD BETWEEN DIXON & HAMLIN,41.780305,-71.420039
59190,LAMBERT LIND OPP GREENWICH,41.726486,-71.474319
59195,PONTIAC FS HOWARD,41.74101,-71.460502
59210,HOWARD AT LATHAM,41.744465,-71.464652
59215,PONTIAC FS PAINE,41.786229,-71.431523
59220,ROLFE OPP POST OFFICE,41.776585,-71.436481
59225,EDDY NS BROOM,41.790803,-71.40342
59240,PAWTUCKET AT EAST PROVIDENCE HIGH SCHOOL,41.819091,-71.355922
59250,S MAIN AT COUNTY COURT,41.825244,-71.407455
59265,ELMGROVE NS SESSIONS,41.841097,-71.392475
59270,ADM KALBFUS OPP HALSEY (WASTE MANAGEMENT),41.507589,-71.314548
59275,VALLEY OPP KNIGHTS OF COLUMBUS,41.523669,-71.296706
59280,BROWNS LANE NS BENNYS,41.537851,-71.29239
59300,ADM KALBFUS FS HALSEY (WASTE MANAGEMENT),41.507396,-71.314415
59305,MAPLE NS HILLSIDE,41.516098,-71.310314
59310,W MAIN OPP MARSHALL,41.545411,-71.291717
59315,BRISTOL FERRY FS BARKERS,41.630733,-71.254179
59320,HOPE OPP THAMES,41.676121,-71.278565
59325,MAIN NS FRANKLIN,41.72529,-71.281443
59350,ELMWOOD NS W FRIENDSHIP,41.810152,-71.423961
59400,PLAINS ROAD LOT,41.490876,-71.539261
59401,WEST ALUMNI FS PLAINS RD,41.489133,-71.537089
59405,FLAGG AT 210 FLAGG,41.491384,-71.534422
59410,FLAGG AT GARRAHY HALL,41.490837,-71.530479
59415,FLAGG AT 120 FLAGG,41.490615,-71.528192
59420,FLAGG AT COASTAL INSTITUTE,41.490434,-71.526244
59530,EAST ALUMNI FS UPPER COLLEGE,41.488481,-71.52513
59535,EAST ALUMNI NS GREENHOUSE,41.488527,-71.526591
59540,WEST ALUMNI AT RODMAN HALL,41.488241,-71.529297
59545,WEST ALUMNI NS HEATHMAN,41.488525,-71.531555
59565,E MAIN AT 3111 E MAIN,41.613134,-71.246083
59570,E MAIN AT  3104 E MAIN,41.613063,-71.246262
59575,E MAIN AT HENRY DAVIS,41.59449,-71.252703
59580,E MAIN NS CROSSINGS,41.585395,-71.252322
59585,E MAIN AT SLATE HILL FARM,41.536076,-71.26772
59600,METACOM FS GOODING,41.69551,-71.26378
59605,W FRANKLIN NS MAPLE,41.815452,-71.414732
59610,PRAIRIE NS EARLY,41.796019,-71.410806
59615,PRAIRIE FS GALLUP,41.800354,-71.412507
59620,WAMPANOAG OPP MOBIL,41.786522,-71.333883
59630,WAMPANOAG AT FORBES FIELD,41.782808,-71.334701
59635,HOPE AT NORTH FARM,41.70765,-71.280395
59645,W MAIN  FS OXBOW APTS,41.543405,-71.29173
59660,E MAIN NS JOHNSON TERRACE,41.524296,-71.278768
59665,E MAIN OPP ATE HILL FARM,41.535829,-71.267747
59670,E MAIN AT 1641 E MAIN,41.577073,-71.251736
59675,E MAIN NS TURNPIKE,41.600324,-71.249988
59700,RT 2 OPP FIRST,41.532703,-71.547438
59705,RT 2 AT WOLF ROCK MEADOWS,41.52936,-71.549706
59710,RT 2 AT 2115 S COUNTY TRL,41.502773,-71.561731
59715,KINGSTOWN NS ALLISONS,41.466329,-71.511559
59720,KINGSTOWN NS SOUTH KINGSTOWN PUBLIC SAFETY COMPLEX,41.463467,-71.510084
59730,KINGSTOWN NS ALLISONS,41.465889,-71.511238
59735,KINGSTOWN FS WEST WIND,41.471041,-71.514533
59740,KINGSTOWN NS EAST FARM,41.472122,-71.5154
59745,KINGSTOWN NS ROUTE 138,41.479637,-71.520653
59750,KINGSTOWN AT MOBIL GAS STATION,41.483402,-71.553139
59755,POINT JUDITH AT 290 POINT JUDITH RD,41.418393,-71.480017
59760,RT 2 OPP KINGSTON REHAB CENTER,41.502655,-71.561589
59765,RT 2 AT 535 SOUTH COUNTY TRL,41.529316,-71.549498
59770,RT 2 FS FIRST,41.53249,-71.547286
59775,RT 2 OPP EXETER ANIMAL SHELTER,41.550027,-71.528892
59780,RT 2 AT LIVING HOPE CHURCH,41.55617,-71.519225
59785,RT 2 FS PLAIN,41.576532,-71.513278
59790,RT 2 NS AUTUMN,41.578836,-71.507602
59800,GEORGE BETWEEN MARRIN AND GRACE,41.872535,-71.387778
59815,DYER AT 738 DYER,41.792126,-71.45738
59825,LAUREL HILL OPP CLIFF,41.797181,-71.452351
59830,WALMART SVC RD OPP CITIZENS BANK,41.789297,-71.500456
59860,MT PLEASANT FS POMONA,41.828119,-71.448919
59865,MT PLEASANT AT OUR LADY OF PROVIDENCE,41.839769,-71.451892
59875,MT PLEASANT NS ATWELLS,41.825508,-71.448766
59880,RT 246 FS TWIN RIVER RD,41.893973,-71.446662
59895,MINERAL SPRING FS POWER,41.87019,-71.418404
59900,RT 146A OPP 435 RT 146A,41.972961,-71.509396
59915,WALMART CRANSTON,41.787535,-71.499027
59920,WALMART SVC RD FS CITIZENS BANK,41.789003,-71.500793
59950,BROAD OPP 2131 BROAD,41.76735,-71.391503
59960,JEFFERSON BLVD AT 51 JEFFERSON BLVD,41.751614,-71.435008
59975,WARWICK AT KNIGHTS OF COLUMBUS,41.713389,-71.399093
59990,RT 102 NS CROSS,41.927198,-71.669337
59995,RT 102 AT 56 RT 102,41.921386,-71.670556
60000,PUTNAM PIKE AT 208 PUTNAM PIKE,41.890302,-71.602171
60005,PUTNAME PIKE AT 120 PUTNAME PIKE,41.879105,-71.575233
60010,PUTNAM PIKE AT CORY'S,41.875868,-71.566254
60015,HARTFORD AT 807 HARTFORD,41.819668,-71.471647
60020,STOP&SHOP (COMMERCE WAY - JOHNSTON),41.820704,-71.500056
60025,BLACKSTONE NS ROCHAMBEAU,41.845893,-71.387265
60030,ELMGROVE NS ADELPHI,41.830869,-71.389706
60035,DOYLE OPP 132 DOYLE,41.838741,-71.402964
60040,BROOK NS MEETING,41.828925,-71.399525
60045,VALLEY NS WATERFRONT,41.818492,-71.383548
60060,NEWPORT NS NARRAGANSETT PK,41.857951,-71.354392
60065,NEWPORT AT TACO BELL,41.85909,-71.354423
60070,PROSPECT NS TALCOTT,41.865379,-71.373207
60075,NARRAGANSETT PARK NS NEWPORT,41.85823,-71.353063
60080,EXCHANGE AT TOLMAN HIGH SCHOOL,41.87982,-71.380381
60085,BOSTON NECK FS SNUFF MILL,41.522243,-71.42384
60090,BOSTON NECK OPP 2080 BOSTON NECK,41.519246,-71.424093
60095,CASS AT 255 CASS,42.005499,-71.494287
60115,RT 116 FS ALBION,41.935196,-71.480701
60125,RT 146A OPP N SMITHFIELD POLICE STATION,41.983986,-71.518439
60135,PUTNAM PIKE AT 590 PUTNAM PIKE,41.87263,-71.554862
60140,PUTNAM PIKE OPP 781 PUTNAM PIKE,41.878917,-71.574405
60145,PUTNAM PIKE AT POWDER MILL CREAMERY,41.881989,-71.57946
60150,RT 102 OPP CROSS,41.926548,-71.669426
60155,CHAPEL FS RAILROAD,41.968196,-71.688117
60165,SMITHFIELD OPP CUSHING,41.855964,-71.448852
60170,DOUGLAS PIKE AT HAMPTON INN,41.914343,-71.517687
60175,DOUGLAS PIKE NS HARRIS,41.90367,-71.506482
60180,DOUGLAS PIKE AT 40 DOUGLAS PIKE,41.875535,-71.470121
60185,DOUGLAS AT 1576 DOUGLAS,41.867997,-71.460157
60190,DOUGLAS AT 1328 DOUGLAS,41.861408,-71.450354
60200,WALMART NORTH SMITHFIELD,41.976634,-71.506905
60220,SILVER SPRING AT BURGER KING,41.858631,-71.411016
60235,BENEFIT AT THURBER,41.891577,-71.345995
70170,WASHINGTON AT 704 WASHINGTON,41.694719,-71.551339
70175,WASHINGTON AT 676 WASHINGTON,41.695071,-71.548936
70180,WASHINGTON AT 203 WASHINGTON,41.70137,-71.527613
70185,TOLLGATE FS BALD HILL,41.709979,-71.491094
70190,BALD HILL FS TOLLGATE,41.711117,-71.489565
70195,BEACH AT CHURCH CENTER,41.721733,-71.384242
70200,COWESETT OPP LONSDALE,41.684619,-71.51781
70205,GATE RD AT IAFRATE WAY,41.605977,-71.449669
70210,GATE RD AT KOHLS,41.605776,-71.4512
70220,PHILLIPS AT 320 PHILLIPS,41.566098,-71.462826
70225,PHILLIPS AT 226 PHILLIPS,41.566277,-71.459563
70230,BOSTON NECK NS MIDDLEBRIDGE,41.453452,-71.442568
70235,NARRAGANSETT FS BOSTON NECK,41.433942,-71.458111
70240,NARRAGANSETT NS BOSTON NECK,41.433819,-71.458382
70245,BOSTON NECK OPP OLD BOSTON NECK (NORTH),41.458251,-71.435997
70250,BOSTON NECK NS ANAWAN CLIFFS,41.460581,-71.433813
70255,BOSTON NECK AT 939 BOSTON NECK,41.477688,-71.435673
70260,BOSTON NECK AT 1141 BOSTON NECK,41.488253,-71.437523
70265,BOSTON NECK OPP RT 138W [ON-RAMP],41.530429,-71.427848
70270,BOSTON NECK NS ELAM,41.568592,-71.453315
70275,BOSTON NECK AT WICKFORD ELEM SCHOOL,41.568193,-71.455232
70280,POST OPP 55 POST,41.572984,-71.462008
70285,POST AT 6188 POST,41.628944,-71.462496
70290,POST AT 4474 POST,41.669085,-71.44869
70300,POST AT 3775 POST,41.686995,-71.454682
70310,HOPE FS ALUMNI,41.834589,-71.401616
70315,THAYER NS CUSHING,41.830319,-71.401007
70330,SAYLES FS BRIDGEWAY,41.956493,-71.702677
70340,BEVERAGE HILL OPP 650 BEVERAGE HILL,41.860748,-71.353221
70345,BEVERAGE HILL OPP LANGDON,41.860797,-71.35138
70350,BEVERAGE HILL NS NARRAGANSETT PARK,41.860824,-71.350069
70370,MINERAL SPRING OPP DAVID,41.865851,-71.443406
70375,MINERAL SPRING NS DOUGLAS,41.863517,-71.452344
70380,MINERAL SPRING FS SMITH,41.857976,-71.4841
70385,ESMOND AT 65A ESMOND,41.872973,-71.505268
70390,ESMOND NS PUTNAM PIKE,41.86898,-71.507404
70395,SMITHFIELD CROSSING AT HALLMARK,41.873345,-71.517828
70400,SMITHFIELD CROSSING AT BARNES & NOBLE,41.874074,-71.517122
70405,ESMOND FS PUTNAM PIKE,41.869098,-71.507212
70410,ESMOND AT 56 ESMOND,41.873408,-71.505071
70415,HILLSIDE AT 14 HILLSIDE RD,41.764538,-71.458462
70425,KINGSTOWN OPP KERSEY,41.452814,-71.502088
70430,SOUTH PIER NS LAMBERT,41.430868,-71.48094
70435,QUAKER LAND FS OLD CARRIIAGE RD,41.688096,-71.501118
70445,MENDON OPP 1748 OLD MENDON,41.910228,-71.402567
70450,MENDON FS OLD MENDON,41.925321,-71.414618
70455,MENDON OPP HUNT,41.926602,-71.417356
70460,MENDON NS CUSHING,41.927803,-71.419741
70465,MENDON NS WHIPPLE,41.92894,-71.421022
70470,RT 116 NS PAULINE,41.935815,-71.44074
70475,RT 116 OPP 695 G WASHINGTON HWAY,41.935053,-71.445251
70480,MENDON FS 500 MENDON,41.92135,-71.409838
70485,LONSDALE FS FRONT,41.906553,-71.403679
70490,LONSDALE OPP 1501 LONSDALE,41.904189,-71.404339
70500,LONSDALE NS EDGEHILL,41.899664,-71.405045
70505,LONSDALE FS VALLEY VIEW,41.897677,-71.404428
70510,LONSDALE NS WALKER,41.895661,-71.404855
70540,WICKFORD TRAIN STATION,41.581093,-71.491828
70545,COTTAGE NS BENEFIT,41.89273,-71.356883
70590,COTTAGE FS BENEFIT,41.892714,-71.356521
70595,COTTAGE NS NEWPORT,41.893609,-71.355053
70600,RT 1A & RT 138 PARK&RIDE,41.526983,-71.425462
70670,RT 2 & RT 4 PARK&RIDE,41.611768,-71.492707
70700,DOUGLAS FS RIVER,41.852531,-71.436868
70800,COMMERCE NS PUTNAM PIKE,41.869415,-71.534554
70805,STOP&SHOP (GARFIELD STREET - CRANSTON),41.795262,-71.442886
70810,S BROADWAY FS WINSOR,41.813161,-71.370703
70815,MARTIN OPP ANGELL,41.801464,-71.367331
70820,WAMPANOAG NS BUCK THORNE,41.797289,-71.359453
70825,WAMPANOAG FS GARDEN DR,41.795855,-71.353412
70830,WAMPANOAG OPP GARDEN DR,41.796644,-71.357025
70835,WAMPANOAG OPP BUCK THORNE,41.797319,-71.359184
70840,MARTIN FS PAWTUCKET,41.801433,-71.366587
70845,MARTIN OPP DODGE,41.801833,-71.368737
70850,S BROADWAY FS MARTIN,41.803891,-71.373629
70855,S BROADWAY NS BELMONT,41.809701,-71.371738
70860,S BROADWAY NS WINSOR,41.812959,-71.370659
70870,ATWELLS NS VALLEY,41.824615,-71.438596
70875,HARTFORD FS I-295,41.82741,-71.512968
70880,HARTFORD NS ATWOOD,41.824461,-71.501826
70885,HARTFORD AT I-295,41.82764,-71.51275
70890,S MAIN FS WICKENDEN,41.819201,-71.401158
70895,ARMISTICE OPP SLATER PARK,41.87474,-71.341948
71000,PLAINFIELD FS ATWOOD ST,41.816184,-71.444622
71005,BRIGIDO MARKET PARK AND RIDE,42.005421,-71.586487
71010,NORTH MAIN NS MAIN ST,42.000417,-71.579405
71015,MAIN ST  NS NORTH MAIN ST,42.000581,-71.578839
71020,GREAT RD AT 594 GREAT RD,41.998782,-71.548918
71025,GREAT RD AT 601 GREAT RD,41.998782,-71.548727
71030,SMITH NS GENTIAN,41.845875,-71.451401
71040,SMITH NS RIVER,41.8409,-71.441364
71045,JOB LOT PLAZA,41.771346,-71.424379
71050,WARREN FS LYON,41.81524,-71.375479
71055,WARREN FS BROADWAY,41.813348,-71.368743
71060,WARREN FS SLOCUM,41.812854,-71.365961
71065,WARREN FS BROWN,41.811983,-71.362527
71070,WARREN NS S ROSE,41.811515,-71.360703
71075,WARREN FS S SPRUCE,41.811724,-71.361278
71080,WARREN FS HIGH,41.812572,-71.364463
71085,WARREN OPP DONNELY,41.813125,-71.366938
71095,PARK NS CRANSTON,41.783104,-71.463573
71100,PHENIX NS GREEN,41.781995,-71.467035
71105,PHENIX NS ATWOOD,41.781071,-71.471744
71115,PHENIX OPP PRESTON,41.780763,-71.473959
71120,PHENIX FS ATWOOD,41.780978,-71.471772
71125,PHENIX OPP GREEN,41.781931,-71.467021
71130,PARK FS CRANSTON,41.78304,-71.463546
71135,PARK FS PALMER,41.783589,-71.459967
71140,STOP&SHOP (ATWOOD AVENUE - CRANSTON),41.781562,-71.473986
71145,PONTIAC NS HOWARD,41.740849,-71.46085
72000,CARR STREET (R-LINE),41.78949,-71.404503
72005,WESTMINSTER STREET (R-LINE),41.821076,-71.415389
72010,PROVIDENCE STATION,41.828283,-71.413073
72015,PROVIDENCE STATION,41.828623,-71.412841
72020,ROGER WILLIAMS NATIONAL MEMORIAL,41.828711,-71.410829
72025,PEARL STREET (R-LINE),41.871802,-71.395046
72100,WASHINGTON NS CLEMENCE,41.82323,-71.414454
72110,EXCHANGE NS EXCHANGE CT,41.879768,-71.380799
72125,S ATTLEBORO TRAIN STATION,41.898928,-71.355571
72130,WARWICK AVE SHAWS,41.767348,-71.404063
72135,FISH RD PARK & RIDE,41.643331,-71.186834
72155,KENNEDY PLAZA (STOP F),41.82484,-71.412085
72160,KENNEDY PLAZA (STOP W),41.825465,-71.412597
72165,KENNEDY PLAZA (STOP Y),41.825971,-71.411967
72170,KENNEDY PLAZA (STOP Z),41.82603,-71.411791
72175,KENNEDY PLAZA (STOP A),41.824672,-71.411896
72180,NORTH NS WATSON,41.498149,-71.374706
72185,WOODLAND NS GOLDFINCH,41.672631,-71.5935
72190,KINGSTOWN OPP GRADUATE VILLAGE APTS,41.482201,-71.535733
72210,NEWPORT NS DAWSON,41.894953,-71.354344
72215,COTTAGE NS COUNTY ST,41.893252,-71.355883
72220,NEWPORT NS MILL,41.895751,-71.354223
72230,ELMWOOD FS HANOVER,41.807309,-71.424877
72240,ELMWOOD OPP MOORE,41.804831,-71.425529
72250,ELMWOOD NS HAWTHORNE,41.800859,-71.426567
72260,ELMWOOD AT 635 ELMWOOD (FURNACE & DUCT SUPPLY CO.),41.794744,-71.424544
72270,ELMWOOD NS PRINCETON,41.805262,-71.425183
72300,MARKET BASKET SOUTH ATTLEBORO,41.898866,-71.35369
72305,JEFFERSON BLVD NS CYPRESS,41.755179,-71.438239
72310,COLLYER AT JOB LOT,41.857002,-71.40232
72330,WESTMINSTER AT 1834 WESTMINSTER ST,41.816212,-71.440336
72335,GREENE ST NS SCHOOL ST,42.000829,-71.578416
72340,EDDY FS POINT,41.817536,-71.40687
72345,EDDY OPP SHIP,41.819252,-71.407885
72350,DORRANCE FS PINE,41.823029,-71.410831
72355,DYER FS FRIENDSHIP,41.823316,-71.408182
72360,GEORGE WATERMEN FS ARMENTO,41.842952,-71.485495
72365,NEW LONDON FS CHAPEL VIEW BLVD,41.756357,-71.461752
72370,MET SCHOOL NEWPORT,41.51407,-71.313584
72380,DOWLING VILLAGE BLVD AT SLEEPY'S,41.979707,-71.508929
72385,DOWLING VILLAGE BLVD @ LANDMARK MED,41.980639,-71.512433
72390,DOWLING VILLAGE @ CVS,41.980413,-71.512371
72395,DOWLING VILLAGE & EDDIE DOWLING,41.979554,-71.509141
72400,DOWLING VILLAGE OPP WALMART,41.97645,-71.507058
72410,JOHN CUMMINGS NS SOCIAL,42.007887,-71.505392
72425,ARMISTICE OPP ALEXANDER MCGREGOR,41.873902,-71.340129
72430,PUTNAM PIKE OPP LEVI LANE,41.870043,-71.522106
72435,PAWTUCKET OPP OFFICE PKWY,41.826065,-71.353224
72445,CHOPMIST HILL FIRE STA,41.815873,-71.663297
72450,ADMIRAL FS HEREFORD,41.848438,-71.436924
72455,ADMIRAL AT CARTERET,41.847718,-71.435412
72460,BROADWAY FS MAY,41.881566,-71.377756
72465,BROADWAY DFS ALLEN,41.883679,-71.376714
72470,TIDEWATER FS LONGMEADOW,41.705996,-71.371295
72475,TIDEWATER FS EHIPPLE,41.708385,-71.373265
72480,TIDEWATER FS RIVER VUE,41.7114,-71.374942
72485,TIDEWATER NS WEBB,41.71093,-71.374858
72490,TIDEWATER NS CLARA,41.707886,-71.372983
72495,TIDEWATER NS LONGMEADOW,41.705465,-71.371054
72500,LONGMEADOW NS DRAPER,41.704298,-71.373742
72505,DOUGLAS FS MANSFIELD,41.837661,-71.423284
72510,1A NS MAIN,41.81698,-71.400208
72520,WEYBOSSET FS EDDY,41.822617,-71.411571
72525,WEYBOSSET NS SNOW,41.820912,-71.413148
72530,SEEKONK SQUARE (COMMERCE WAY - SEEKONK),41.795428,-71.322655
72535,JAMES FS TAUNTON,41.819968,-71.375085
72540,WAMPANOAG FS AMARAL,41.794488,-71.349167
72550,WAMPANOAG FS TRIPPS,41.795641,-71.352418
72555,RIVER FS MINK,41.788883,-71.331974
72560,HIGHLAND AT STATE LINE,41.804855,-71.339646
72565,EVERGREEN OPP HATTON,41.806426,-71.344999
72570,EVERGREEN NS HATTON,41.806558,-71.345096
72575,EVERGREEN NS JORDAN,41.803813,-71.345048
72580,HIGHLAND AT RI/MA STATE LINE,41.804656,-71.339726
72585,POINT FS EDDY,41.817111,-71.405611
72590,WICKENDEN FS S WATER,41.818819,-71.40113
72600,DYER NS PECK,41.822657,-71.408365
72605,WICKENDEN NS S WATER,41.818866,-71.401659
72610,POINT NS EDDY,41.817223,-71.405724
72700,BELLEVUE AT LEDGE (drop off only),41.455761,-71.30827
place_brpa,brewery parkade,41.795793,-71.444103
place_kepl,kennedy plaza - providence,41.825054,-71.411571
place_tfgr,t.f. green airport,41.72573,-71.436812